$GNRMC,032030.00,A,3509.37231,N,07925.36224,W,0.043,,060226,,,A,V*00
$GNVTG,,T,,M,0.043,N,0.080,K,A*32
$GNGGA,032030.00,3509.37231,N,07925.36224,W,1,12,0.73,139.0,M,-33.6,M,,*76
$GNGSA,M,3,05,11,13,18,21,23,29,,,,,,1.37,0.73,1.16,1*0D
$GNGSA,M,3,04,10,12,16,19,33,,,,,,,1.37,0.73,1.16,3*01
$GNGSA,M,3,19,20,29,30,32,35,,,,,,,1.37,0.73,1.16,4*0A
$GPGSV,3,1,10,05,45,046,39,11,18,115,22,13,61,077,45,15,76,188,21,1*64
$GPGSV,3,2,10,18,36,315,31,21,19,062,28,23,24,270,26,29,57,227,34,1*67
$GPGSV,3,3,10,44,33,233,31,46,24,244,32,1*62
$GPGSV,2,1,06,05,45,046,20,11,18,115,13,15,76,188,17,18,36,315,17,6*63
$GPGSV,2,2,06,23,24,270,29,29,57,227,26,6*66
$GPGSV,1,1,03,18,36,315,23,23,24,270,27,24,09,165,17,8*58
$GPGSV,1,1,03,20,69,075,,30,08,050,,48,27,241,,0*59
$GAGSV,2,1,07,04,34,192,20,10,47,322,31,12,66,354,23,16,10,252,25,1*7D
$GAGSV,2,2,07,19,67,103,25,25,07,297,17,33,41,097,29,1*44
$GAGSV,3,1,10,04,34,192,25,06,11,203,27,10,47,322,31,11,21,308,12,7*74
$GAGSV,3,2,10,12,66,354,26,16,10,252,24,19,67,103,34,25,07,297,26,7*77
$GAGSV,3,3,10,29,30,046,25,33,41,097,35,7*72
$GAGSV,1,1,01,31,00,203,,0*46
$GBGSV,2,1,08,19,45,239,33,20,78,003,33,29,80,249,26,30,37,150,26,3*7F
$GBGSV,2,2,08,32,23,045,19,35,26,315,28,47,68,160,23,48,74,261,25,3*7C
$GBGSV,2,1,07,19,45,239,20,20,78,003,26,29,80,249,20,30,37,150,26,5*76
$GBGSV,2,2,07,32,23,045,20,47,68,160,22,48,74,261,32,5*47
$GBGSV,2,1,06,19,45,239,28,20,78,003,22,29,80,249,12,30,37,150,17,8*75
$GBGSV,2,2,06,47,68,160,22,48,74,261,30,8*7A
$GNGLL,3509.37231,N,07925.36224,W,032030.00,A,A*64
$GNRMC,032031.00,A,3509.37231,N,07925.36228,W,0.073,,060226,,,A,V*0E
$GNVTG,,T,,M,0.073,N,0.134,K,A*3F
$GNGGA,032031.00,3509.37231,N,07925.36228,W,1,12,0.73,139.1,M,-33.6,M,,*7A
$GNGSA,M,3,05,11,13,18,21,23,29,,,,,,1.37,0.73,1.16,1*0D
$GNGSA,M,3,04,10,12,16,19,33,,,,,,,1.37,0.73,1.16,3*01
$GNGSA,M,3,19,20,29,30,32,35,,,,,,,1.37,0.73,1.16,4*0A
$GPGSV,3,1,10,05,45,046,39,11,18,115,22,13,61,077,45,15,76,188,21,1*64
$GPGSV,3,2,10,18,36,315,31,21,19,062,28,23,24,270,25,29,57,227,34,1*64
$GPGSV,3,3,10,44,33,233,30,46,24,244,32,1*63
$GPGSV,1,1,01,21,19,062,17,5*58
$GPGSV,2,1,06,05,45,046,20,11,18,115,13,15,76,188,17,18,36,315,17,6*63
$GPGSV,2,2,06,23,24,270,29,29,57,227,26,6*66
$GPGSV,1,1,03,18,36,315,23,23,24,270,27,24,09,165,17,8*58
$GPGSV,1,1,03,20,69,075,,30,08,050,,48,27,241,,0*59
$GAGSV,2,1,07,04,34,192,20,10,47,322,31,12,66,354,23,16,10,252,25,1*7D
$GAGSV,2,2,07,19,67,103,25,25,07,297,17,33,41,097,29,1*44
$GAGSV,3,1,10,04,34,192,24,06,11,203,27,10,47,322,31,11,21,308,10,7*77
$GAGSV,3,2,10,12,66,354,26,16,10,252,25,19,67,103,34,25,07,297,26,7*76
$GAGSV,3,3,10,29,30,046,25,33,41,097,36,7*71
$GAGSV,1,1,01,31,00,203,,0*46
$GBGSV,2,1,08,19,45,239,33,20,78,003,32,29,80,249,26,30,37,150,27,3*7F
$GBGSV,2,2,08,32,23,045,19,35,26,315,28,47,68,160,23,48,74,261,25,3*7C
$GBGSV,2,1,08,19,45,239,21,20,78,003,25,29,80,249,20,30,37,150,26,5*7B
$GBGSV,2,2,08,32,23,045,20,35,26,315,19,47,68,160,23,48,74,261,32,5*74
$GBGSV,2,1,06,19,45,239,28,20,78,003,22,29,80,249,13,30,37,150,17,8*74
$GBGSV,2,2,06,47,68,160,22,48,74,261,30,8*7A
$GNGLL,3509.37231,N,07925.36228,W,032031.00,A,A*69
$GNRMC,032032.00,A,3509.37230,N,07925.36231,W,0.027,,060226,,,A,V*05
$GNVTG,,T,,M,0.027,N,0.050,K,A*3D
$GNGGA,032032.00,3509.37230,N,07925.36231,W,1,12,0.73,139.2,M,-33.6,M,,*73
$GNGSA,M,3,05,11,13,18,21,23,29,,,,,,1.37,0.73,1.16,1*0D
$GNGSA,M,3,04,10,12,16,19,33,,,,,,,1.37,0.73,1.16,3*01
$GNGSA,M,3,19,20,29,30,32,35,,,,,,,1.37,0.73,1.16,4*0A
$GPGSV,3,1,11,05,45,046,39,11,18,115,22,13,61,077,45,15,76,188,21,1*65
$GPGSV,3,2,11,18,36,315,31,20,69,075,23,21,19,062,28,23,24,270,26,1*61
$GPGSV,3,3,11,29,57,227,34,44,33,233,30,46,24,244,32,1*5B
$GPGSV,2,1,07,05,45,046,20,11,18,115,12,15,76,188,17,18,36,315,17,6*63
$GPGSV,2,2,07,21,19,062,16,23,24,270,29,29,57,227,25,6*5C
$GPGSV,1,1,03,18,36,315,22,23,24,270,27,24,09,165,17,8*59
$GPGSV,1,1,02,30,08,050,,48,27,241,,0*67
$GAGSV,2,1,07,04,34,192,21,10,47,322,31,12,66,354,23,16,10,252,25,1*7C
$GAGSV,2,2,07,19,67,103,25,25,07,297,16,33,41,097,29,1*45
$GAGSV,3,1,10,04,34,192,25,06,11,203,27,10,47,322,31,11,21,308,09,7*7E
$GAGSV,3,2,10,12,66,354,27,16,10,252,24,19,67,103,34,25,07,297,26,7*76
$GAGSV,3,3,10,29,30,046,25,33,41,097,36,7*71
$GAGSV,1,1,01,31,00,203,,0*46
$GBGSV,2,1,08,19,45,239,33,20,78,003,33,29,80,249,26,30,37,150,27,3*7E
$GBGSV,2,2,08,32,23,045,19,35,26,315,28,47,68,160,22,48,74,261,25,3*7D
$GBGSV,2,1,08,19,45,239,20,20,78,003,25,29,80,249,20,30,37,150,26,5*7A
$GBGSV,2,2,08,32,23,045,20,35,26,315,18,47,68,160,23,48,74,261,32,5*75
$GBGSV,2,1,06,19,45,239,28,20,78,003,22,29,80,249,13,30,37,150,17,8*74
$GBGSV,2,2,06,47,68,160,22,48,74,261,29,8*72
$GNGLL,3509.37230,N,07925.36231,W,032032.00,A,A*63
$GNRMC,032033.00,A,3509.37229,N,07925.36233,W,0.026,,060226,,,A,V*0F
$GNVTG,,T,,M,0.026,N,0.049,K,A*34
$GNGGA,032033.00,3509.37229,N,07925.36233,W,1,12,0.73,139.3,M,-33.6,M,,*79
$GNGSA,M,3,05,11,13,18,21,23,29,,,,,,1.37,0.73,1.16,1*0D
$GNGSA,M,3,04,10,12,16,19,33,,,,,,,1.37,0.73,1.16,3*01
$GNGSA,M,3,19,20,29,30,32,35,,,,,,,1.37,0.73,1.16,4*0A
$GPGSV,3,1,11,05,45,046,39,11,18,115,22,13,61,077,45,15,76,188,21,1*65
$GPGSV,3,2,11,18,36,315,31,20,69,075,22,21,19,062,28,23,24,270,26,1*60
$GPGSV,3,3,11,29,57,227,34,44,33,233,30,46,24,244,32,1*5B
$GPGSV,2,1,07,05,45,046,21,11,18,115,13,15,76,188,17,18,36,315,17,6*63
$GPGSV,2,2,07,21,19,062,17,23,24,270,28,29,57,227,25,6*5C
$GPGSV,1,1,03,18,36,315,22,23,24,270,27,24,09,165,17,8*59
$GPGSV,1,1,02,30,08,050,,48,27,241,,0*67
$GAGSV,2,1,08,04,34,192,21,06,11,203,16,10,47,322,31,12,66,354,23,1*77
$GAGSV,2,2,08,16,10,252,25,19,67,103,25,25,07,297,15,33,41,097,29,1*7D
$GAGSV,3,1,10,04,34,192,25,06,11,203,28,10,47,322,31,11,21,308,11,7*78
$GAGSV,3,2,10,12,66,354,27,16,10,252,24,19,67,103,34,25,07,297,26,7*76
$GAGSV,3,3,10,29,30,046,25,33,41,097,36,7*71
$GAGSV,1,1,01,31,00,203,,0*46
$GBGSV,2,1,08,19,45,239,32,20,78,003,33,29,80,249,26,30,37,150,27,3*7F
$GBGSV,2,2,08,32,23,045,19,35,26,315,28,47,68,160,22,48,74,261,24,3*7C
$GBGSV,2,1,08,19,45,239,20,20,78,003,26,29,80,249,20,30,37,150,26,5*79
$GBGSV,2,2,08,32,23,045,20,35,26,315,18,47,68,160,23,48,74,261,32,5*75
$GBGSV,2,1,06,19,45,239,28,20,78,003,21,29,80,249,13,30,37,150,17,8*77
$GBGSV,2,2,06,47,68,160,22,48,74,261,30,8*7A
$GNGLL,3509.37229,N,07925.36233,W,032033.00,A,A*68
$GNRMC,032034.00,A,3509.37228,N,07925.36236,W,0.047,,060226,,,A,V*0B
$GNVTG,,T,,M,0.047,N,0.087,K,A*31
$GNGGA,032034.00,3509.37228,N,07925.36236,W,1,12,0.73,139.3,M,-33.6,M,,*7A
$GNGSA,M,3,05,11,13,18,21,23,29,,,,,,1.37,0.73,1.16,1*0D
$GNGSA,M,3,04,10,12,16,19,33,,,,,,,1.37,0.73,1.16,3*01
$GNGSA,M,3,19,20,29,30,32,35,,,,,,,1.37,0.73,1.16,4*0A
$GPGSV,3,1,10,05,45,046,39,11,18,115,22,13,61,077,45,15,76,188,21,1*64
$GPGSV,3,2,10,18,36,315,31,21,19,062,29,23,24,270,26,29,57,227,34,1*66
$GPGSV,3,3,10,44,33,233,30,46,24,244,32,1*63
$GPGSV,2,1,07,05,45,046,21,11,18,115,11,15,76,188,18,18,36,315,18,6*61
$GPGSV,2,2,07,21,19,062,17,23,24,270,28,29,57,227,25,6*5C
$GPGSV,1,1,03,18,36,315,23,23,24,270,27,24,09,165,15,8*5A
$GPGSV,1,1,03,20,69,075,,30,08,050,,48,27,241,,0*59
$GAGSV,2,1,08,04,34,192,20,06,11,203,15,10,47,322,31,12,66,354,24,1*72
$GAGSV,2,2,08,16,10,252,25,19,67,103,25,25,07,297,16,33,41,097,29,1*7E
$GAGSV,3,1,10,04,34,192,25,06,11,203,27,10,47,322,31,11,21,308,11,7*77
$GAGSV,3,2,10,12,66,354,27,16,10,252,24,19,67,103,34,25,07,297,26,7*76
$GAGSV,3,3,10,29,30,046,25,33,41,097,35,7*72
$GAGSV,1,1,01,31,00,203,,0*46
$GBGSV,2,1,08,19,45,239,32,20,78,003,32,29,80,249,27,30,37,150,27,3*7F
$GBGSV,2,2,08,32,23,045,19,35,26,315,28,47,68,160,22,48,74,261,24,3*7C
$GBGSV,2,1,08,19,45,239,20,20,78,003,25,29,80,249,20,30,37,150,27,5*7B
$GBGSV,2,2,08,32,23,045,20,35,26,315,18,47,68,160,23,48,74,261,32,5*75
$GBGSV,2,1,06,19,45,239,28,20,78,003,22,29,80,249,13,30,37,150,16,8*75
$GBGSV,2,2,06,47,68,160,22,48,74,261,30,8*7A
$GNGLL,3509.37228,N,07925.36236,W,032034.00,A,A*6B
$GNRMC,032035.00,A,3509.37228,N,07925.36239,W,0.073,,060226,,,A,V*02
$GNVTG,,T,,M,0.073,N,0.134,K,A*3F
$GNGGA,032035.00,3509.37228,N,07925.36239,W,1,12,0.73,139.4,M,-33.6,M,,*73
$GNGSA,M,3,05,11,13,18,21,23,29,,,,,,1.37,0.73,1.16,1*0D
$GNGSA,M,3,04,10,12,16,19,33,,,,,,,1.37,0.73,1.16,3*01
$GNGSA,M,3,19,20,29,30,32,35,,,,,,,1.37,0.73,1.16,4*0A
$GPGSV,3,1,10,05,45,046,39,11,18,115,22,13,61,077,45,15,76,188,22,1*67
$GPGSV,3,2,10,18,36,315,31,21,19,062,29,23,24,270,26,29,57,227,33,1*61
$GPGSV,3,3,10,44,33,233,30,46,24,244,32,1*63
$GPGSV,2,1,07,05,45,046,21,11,18,115,10,15,76,188,17,18,36,315,19,6*6E
$GPGSV,2,2,07,21,19,062,17,23,24,270,28,29,57,227,25,6*5C
$GPGSV,1,1,03,18,36,315,23,23,24,270,27,24,09,165,15,8*5A
$GPGSV,1,1,03,20,69,075,,30,08,050,,48,27,241,,0*59
$GAGSV,2,1,08,04,34,192,20,06,11,203,16,10,47,322,31,12,66,354,24,1*71
$GAGSV,2,2,08,16,10,252,25,19,67,103,25,25,07,297,16,33,41,097,29,1*7E
$GAGSV,3,1,10,04,34,192,25,06,11,203,27,10,47,322,31,11,21,308,12,7*74
$GAGSV,3,2,10,12,66,354,27,16,10,252,24,19,67,103,34,25,07,297,26,7*76
$GAGSV,3,3,10,29,30,046,24,33,41,097,35,7*73
$GAGSV,1,1,01,31,00,203,,0*46
$GBGSV,2,1,08,19,45,239,32,20,78,003,32,29,80,249,26,30,37,150,27,3*7E
$GBGSV,2,2,08,32,23,045,19,35,26,315,28,47,68,160,22,48,74,261,24,3*7C
$GBGSV,2,1,08,19,45,239,20,20,78,003,25,29,80,249,20,30,37,150,26,5*7A
$GBGSV,2,2,08,32,23,045,20,35,26,315,18,47,68,160,23,48,74,261,32,5*75
$GBGSV,2,1,06,19,45,239,27,20,78,003,21,29,80,249,14,30,37,150,16,8*7E
$GBGSV,2,2,06,47,68,160,21,48,74,261,29,8*71
$GNGLL,3509.37228,N,07925.36239,W,032035.00,A,A*65
$GNRMC,032036.00,A,3509.37228,N,07925.36242,W,0.060,,060226,,,A,V*0F
$GNVTG,,T,,M,0.060,N,0.112,K,A*39
$GNGGA,032036.00,3509.37228,N,07925.36242,W,1,12,0.73,139.4,M,-33.6,M,,*7C
$GNGSA,M,3,05,11,13,15,18,21,23,29,,,,,1.32,0.73,1.11,1*0B
$GNGSA,M,3,04,10,12,16,19,33,,,,,,,1.32,0.73,1.11,3*03
$GNGSA,M,3,19,20,29,30,32,35,,,,,,,1.32,0.73,1.11,4*08
$GPGSV,3,1,10,05,45,046,39,11,18,115,23,13,61,077,45,15,76,188,22,1*66
$GPGSV,3,2,10,18,36,315,31,21,19,062,28,23,24,270,25,29,57,227,34,1*64
$GPGSV,3,3,10,44,33,233,30,46,24,244,32,1*63
$GPGSV,2,1,07,05,45,046,21,11,18,115,11,15,76,188,18,18,36,315,19,6*60
$GPGSV,2,2,07,21,19,062,16,23,24,270,28,29,57,227,25,6*5D
$GPGSV,1,1,03,18,36,315,23,23,24,270,26,24,09,165,16,8*58
$GPGSV,1,1,03,20,69,075,,30,08,050,,48,27,241,,0*59
$GAGSV,2,1,08,04,34,192,21,06,11,203,17,10,47,322,31,12,66,354,23,1*76
$GAGSV,2,2,08,16,10,252,25,19,67,103,25,25,07,297,15,33,41,097,29,1*7D
$GAGSV,3,1,10,04,34,192,25,06,11,203,27,10,47,322,31,11,21,308,14,7*72
$GAGSV,3,2,10,12,66,354,27,16,10,252,24,19,67,103,34,25,07,297,26,7*76
$GAGSV,3,3,10,29,30,046,24,33,41,097,35,7*73
$GAGSV,1,1,01,31,00,203,,0*46
$GBGSV,2,1,08,19,45,239,32,20,78,003,32,29,80,249,26,30,37,150,27,3*7E
$GBGSV,2,2,08,32,23,045,20,35,26,315,28,47,68,160,22,48,74,261,24,3*76
$GBGSV,2,1,08,19,45,239,20,20,78,003,26,29,80,249,20,30,37,150,26,5*79
$GBGSV,2,2,08,32,23,045,20,35,26,315,19,47,68,160,23,48,74,261,32,5*74
$GBGSV,2,1,06,19,45,239,27,20,78,003,21,29,80,249,14,30,37,150,16,8*7E
$GBGSV,2,2,06,47,68,160,22,48,74,261,30,8*7A
$GNGLL,3509.37228,N,07925.36242,W,032036.00,A,A*6A
$GNRMC,032037.00,A,3509.37228,N,07925.36246,W,0.038,,060226,,,A,V*07
$GNVTG,,T,,M,0.038,N,0.071,K,A*30
$GNGGA,032037.00,3509.37228,N,07925.36246,W,1,12,0.73,139.4,M,-33.6,M,,*79
$GNGSA,M,3,05,11,13,15,18,21,23,29,,,,,1.32,0.73,1.11,1*0B
$GNGSA,M,3,04,10,12,16,19,33,,,,,,,1.32,0.73,1.11,3*03
$GNGSA,M,3,19,20,29,30,32,35,,,,,,,1.32,0.73,1.11,4*08
$GPGSV,3,1,10,05,45,046,39,11,18,115,23,13,61,077,45,15,76,188,23,1*67
$GPGSV,3,2,10,18,36,315,31,21,19,062,28,23,24,270,25,29,57,227,33,1*63
$GPGSV,3,3,10,44,33,233,31,46,24,244,32,1*62
$GPGSV,2,1,06,05,45,046,21,15,76,188,18,18,36,315,19,21,19,062,15,6*66
$GPGSV,2,2,06,23,24,270,28,29,57,227,25,6*64
$GPGSV,1,1,03,18,36,315,23,23,24,270,26,24,09,165,16,8*58
$GPGSV,1,1,03,20,69,075,,30,08,050,,48,27,241,,0*59
$GAGSV,3,1,09,04,34,192,20,06,11,203,16,10,47,322,31,12,66,354,23,1*76
$GAGSV,3,2,09,16,10,252,25,19,67,103,25,25,07,297,15,29,30,046,15,1*73
$GAGSV,3,3,09,33,41,097,29,1*4C
$GAGSV,3,1,10,04,34,192,25,06,11,203,27,10,47,322,31,11,21,308,12,7*74
$GAGSV,3,2,10,12,66,354,26,16,10,252,23,19,67,103,34,25,07,297,26,7*70
$GAGSV,3,3,10,29,30,046,24,33,41,097,35,7*73
$GAGSV,1,1,01,31,00,203,,0*46
$GBGSV,2,1,08,19,45,239,32,20,78,003,32,29,80,249,26,30,37,150,27,3*7E
$GBGSV,2,2,08,32,23,045,20,35,26,315,29,47,68,160,22,48,74,261,23,3*70
$GBGSV,2,1,08,19,45,239,20,20,78,003,26,29,80,249,20,30,37,150,26,5*79
$GBGSV,2,2,08,32,23,045,19,35,26,315,19,47,68,160,23,48,74,261,32,5*7E
$GBGSV,2,1,06,19,45,239,27,20,78,003,21,29,80,249,15,30,37,150,16,8*7F
$GBGSV,2,2,06,47,68,160,22,48,74,261,29,8*72
$GNGLL,3509.37228,N,07925.36246,W,032037.00,A,A*6F
$GNRMC,032038.00,A,3509.37228,N,07925.36249,W,0.021,,060226,,,A,V*0F
$GNVTG,,T,,M,0.021,N,0.039,K,A*34
$GNGGA,032038.00,3509.37228,N,07925.36249,W,1,12,0.73,139.6,M,-33.6,M,,*7B
$GNGSA,M,3,05,11,13,18,21,23,29,,,,,,1.37,0.73,1.16,1*0D
$GNGSA,M,3,04,10,12,16,19,33,,,,,,,1.37,0.73,1.16,3*01
$GNGSA,M,3,19,20,29,30,32,35,,,,,,,1.37,0.73,1.16,4*0A
$GPGSV,3,1,10,05,45,046,39,11,18,115,23,13,61,077,45,15,76,188,23,1*67
$GPGSV,3,2,10,18,36,315,31,21,19,062,28,23,24,270,25,29,57,227,34,1*64
$GPGSV,3,3,10,44,33,233,31,46,24,244,32,1*62
$GPGSV,2,1,06,05,45,046,22,15,76,188,18,18,36,315,19,21,19,062,15,6*65
$GPGSV,2,2,06,23,24,270,28,29,57,227,25,6*64
$GPGSV,1,1,03,18,36,315,23,23,24,270,26,24,09,165,16,8*58
$GPGSV,1,1,03,20,69,075,,30,08,050,,48,27,241,,0*59
$GAGSV,3,1,09,04,34,192,20,06,11,203,16,10,47,322,32,12,66,354,23,1*75
$GAGSV,3,2,09,16,10,252,25,19,67,103,25,25,07,297,13,29,30,046,15,1*75
$GAGSV,3,3,09,33,41,097,29,1*4C
$GAGSV,3,1,10,04,34,192,26,06,11,203,27,10,47,322,32,11,21,308,15,7*73
$GAGSV,3,2,10,12,66,354,26,16,10,252,23,19,67,103,34,25,07,297,26,7*70
$GAGSV,3,3,10,29,30,046,24,33,41,097,35,7*73
$GAGSV,1,1,01,31,00,203,,0*46
$GBGSV,2,1,08,19,45,239,31,20,78,003,32,29,80,246,26,30,37,150,27,3*72
$GBGSV,2,2,08,32,23,045,20,35,26,315,29,47,68,160,22,48,74,261,23,3*70
$GBGSV,2,1,08,19,45,239,20,20,78,003,26,29,80,246,20,30,37,150,26,5*76
$GBGSV,2,2,08,32,23,045,19,35,26,315,18,47,68,160,23,48,74,261,32,5*7F
$GBGSV,2,1,06,19,45,239,27,20,78,003,21,29,80,246,14,30,37,150,15,8*72
$GBGSV,2,2,06,47,68,160,22,48,74,261,29,8*72
$GNGLL,3509.37228,N,07925.36249,W,032038.00,A,A*6F
$GNRMC,032039.00,A,3509.37227,N,07925.36252,W,0.012,,060226,,,A,V*0B
$GNVTG,,T,,M,0.012,N,0.022,K,A*3E
$GNGGA,032039.00,3509.37227,N,07925.36252,W,1,12,0.73,139.6,M,-33.6,M,,*7F
$GNGSA,M,3,05,11,13,18,21,23,29,,,,,,1.37,0.73,1.16,1*0D
$GNGSA,M,3,04,10,12,16,19,33,,,,,,,1.37,0.73,1.16,3*01
$GNGSA,M,3,19,20,29,30,32,35,,,,,,,1.37,0.73,1.16,4*0A
$GPGSV,3,1,10,05,45,046,39,11,18,115,22,13,61,077,45,15,76,188,25,1*60
$GPGSV,3,2,10,18,36,315,31,21,19,062,28,23,24,270,24,29,57,227,33,1*62
$GPGSV,3,3,10,44,33,233,30,46,24,244,32,1*63
$GPGSV,2,1,06,05,45,046,22,15,76,188,18,18,36,315,18,21,19,062,15,6*64
$GPGSV,2,2,06,23,24,270,28,29,57,227,25,6*64
$GPGSV,1,1,03,18,36,315,23,23,24,270,26,24,09,165,16,8*58
$GPGSV,1,1,03,20,69,075,,30,08,050,,48,27,241,,0*59
$GAGSV,3,1,09,04,34,192,20,06,11,203,16,10,47,322,31,12,66,354,23,1*76
$GAGSV,3,2,09,16,10,252,25,19,67,103,25,25,07,297,12,29,30,046,16,1*77
$GAGSV,3,3,09,33,41,097,29,1*4C
$GAGSV,3,1,10,04,34,192,26,06,11,203,27,10,47,322,32,11,21,308,14,7*72
$GAGSV,3,2,10,12,66,354,26,16,10,252,23,19,67,103,34,25,07,297,27,7*71
$GAGSV,3,3,10,29,30,046,24,33,41,097,36,7*70
$GAGSV,1,1,01,31,00,203,,0*46
$GBGSV,2,1,08,19,45,239,31,20,78,003,32,29,80,246,26,30,37,150,27,3*72
$GBGSV,2,2,08,32,23,045,20,35,26,315,29,47,68,160,23,48,74,261,23,3*71
$GBGSV,2,1,08,19,45,239,20,20,78,003,26,29,80,246,21,30,37,150,26,5*77
$GBGSV,2,2,08,32,23,045,19,35,26,315,18,47,68,160,23,48,74,261,31,5*7C
$GBGSV,2,1,07,19,45,239,27,20,78,003,21,29,80,246,14,30,37,150,16,8*70
$GBGSV,2,2,07,35,26,315,18,47,68,160,22,48,74,261,29,8*4F
$GNGLL,3509.37227,N,07925.36252,W,032039.00,A,A*6B
$GNRMC,032040.00,A,3509.37226,N,07925.36255,W,0.021,,060226,,,A,V*03
$GNVTG,,T,,M,0.021,N,0.038,K,A*35
$GNGGA,032040.00,3509.37226,N,07925.36255,W,1,12,0.73,139.7,M,-33.6,M,,*76
$GNGSA,M,3,05,11,13,15,18,21,23,29,,,,,1.32,0.73,1.10,1*0A
$GNGSA,M,3,04,10,12,16,19,33,,,,,,,1.32,0.73,1.10,3*02
$GNGSA,M,3,19,20,29,30,32,35,,,,,,,1.32,0.73,1.10,4*09
$GPGSV,3,1,10,05,45,046,39,11,18,115,23,13,61,077,45,15,76,188,26,1*62
$GPGSV,3,2,10,18,36,315,31,21,19,062,27,23,24,270,25,29,57,227,33,1*6C
$GPGSV,3,3,10,44,33,233,31,46,24,244,32,1*62
$GPGSV,2,1,06,05,45,046,22,15,76,188,17,18,36,315,18,21,19,062,15,6*6B
$GPGSV,2,2,06,23,24,270,28,29,57,227,24,6*65
$GPGSV,1,1,03,18,36,315,23,23,24,270,26,24,09,165,15,8*5B
$GPGSV,1,1,03,20,69,075,,30,08,050,,48,27,241,,0*59
$GAGSV,3,1,09,04,34,192,20,06,11,203,16,10,47,322,32,12,66,354,23,1*75
$GAGSV,3,2,09,16,10,252,25,19,67,103,25,25,07,297,13,29,30,046,16,1*76
$GAGSV,3,3,09,33,41,097,29,1*4C
$GAGSV,3,1,10,04,34,192,26,06,11,203,27,10,47,322,32,11,21,308,16,7*70
$GAGSV,3,2,10,12,66,354,26,16,10,252,24,19,67,103,34,25,07,297,26,7*77
$GAGSV,3,3,10,29,30,046,24,33,41,097,36,7*70
$GAGSV,1,1,01,31,00,203,,0*46
$GBGSV,2,1,08,19,45,239,31,20,78,003,32,29,80,246,27,30,37,150,27,3*73
$GBGSV,2,2,08,32,23,045,20,35,26,315,28,47,68,160,22,48,74,261,23,3*71
$GBGSV,2,1,08,19,45,239,20,20,78,003,26,29,80,246,21,30,37,150,26,5*77
$GBGSV,2,2,08,32,23,045,19,35,26,315,18,47,68,160,23,48,74,261,31,5*7C
$GBGSV,2,1,07,19,45,239,27,20,78,003,21,29,80,246,15,30,37,150,15,8*72
$GBGSV,2,2,07,35,26,315,16,47,68,160,22,48,74,261,29,8*41
$GNGLL,3509.37226,N,07925.36255,W,032040.00,A,A*63
$GNRMC,032041.00,A,3509.37225,N,07925.36258,W,0.034,,060226,,,A,V*08
$GNVTG,,T,,M,0.034,N,0.063,K,A*3F
$GNGGA,032041.00,3509.37225,N,07925.36258,W,1,12,0.70,139.7,M,-33.6,M,,*7A
$GNGSA,M,3,05,11,13,15,18,21,23,29,,,,,1.27,0.70,1.06,1*0A
$GNGSA,M,3,04,10,12,16,19,29,33,,,,,,1.27,0.70,1.06,3*09
$GNGSA,M,3,19,20,29,30,32,35,,,,,,,1.27,0.70,1.06,4*09
$GPGSV,3,1,10,05,45,046,39,11,18,115,22,13,61,077,45,15,76,188,26,1*63
$GPGSV,3,2,10,18,36,315,31,21,19,062,27,23,24,270,25,29,57,227,34,1*6B
$GPGSV,3,3,10,44,33,233,31,46,24,244,32,1*62
$GPGSV,2,1,06,05,45,046,22,15,76,188,18,18,36,315,18,21,19,062,14,6*65
$GPGSV,2,2,06,23,24,270,28,29,57,227,23,6*62
$GPGSV,1,1,03,18,36,315,22,23,24,270,27,24,09,165,15,8*5B
$GPGSV,1,1,03,20,69,075,,30,08,050,,48,27,241,,0*59
$GAGSV,3,1,09,04,34,192,21,06,11,203,16,10,47,322,31,12,66,354,23,1*77
$GAGSV,3,2,09,16,10,252,25,19,67,103,25,25,07,297,14,29,30,046,16,1*71
$GAGSV,3,3,09,33,41,097,29,1*4C
$GAGSV,3,1,10,04,34,192,26,06,11,203,27,10,47,322,32,11,21,308,11,7*77
$GAGSV,3,2,10,12,66,354,27,16,10,252,24,19,67,103,34,25,07,297,27,7*77
$GAGSV,3,3,10,29,30,046,24,33,41,097,36,7*70
$GAGSV,1,1,01,31,00,203,,0*46
$GBGSV,2,1,08,19,45,239,31,20,78,003,31,29,80,246,27,30,37,150,27,3*70
$GBGSV,2,2,08,32,23,045,19,35,26,315,29,47,68,160,23,48,74,261,23,3*7B
$GBGSV,2,1,08,19,45,239,19,20,78,003,25,29,80,246,21,30,37,150,26,5*7E
$GBGSV,2,2,08,32,23,045,20,35,26,315,19,47,68,160,23,48,74,261,31,5*77
$GBGSV,2,1,07,19,45,239,27,20,78,003,21,29,80,246,16,30,37,150,15,8*71
$GBGSV,2,2,07,35,26,315,15,47,68,160,22,48,74,261,30,8*4A
$GNGLL,3509.37225,N,07925.36258,W,032041.00,A,A*6C
$GNRMC,032042.00,A,3509.37224,N,07925.36262,W,0.033,,060226,,,A,V*04
$GNVTG,,T,,M,0.033,N,0.061,K,A*3A
$GNGGA,032042.00,3509.37224,N,07925.36262,W,1,12,0.70,139.9,M,-33.6,M,,*7F
$GNGSA,M,3,05,11,13,18,21,23,29,,,,,,1.31,0.70,1.11,1*0F
$GNGSA,M,3,04,10,12,16,19,29,33,,,,,,1.31,0.70,1.11,3*08
$GNGSA,M,3,19,20,29,30,32,35,,,,,,,1.31,0.70,1.11,4*08
$GPGSV,3,1,10,05,45,046,39,11,18,115,23,13,61,077,45,15,76,188,26,1*62
$GPGSV,3,2,10,18,36,315,32,21,19,062,27,23,24,270,25,29,57,227,34,1*68
$GPGSV,3,3,10,44,33,233,31,46,24,244,32,1*62
$GPGSV,2,1,06,05,45,046,22,15,76,188,17,18,36,315,18,21,19,062,13,6*6D
$GPGSV,2,2,06,23,24,270,28,29,57,227,23,6*62
$GPGSV,1,1,03,18,36,315,22,23,24,270,27,24,09,165,15,8*5B
$GPGSV,1,1,03,20,69,075,,30,08,050,,48,27,241,,0*59
$GAGSV,3,1,09,04,34,192,21,06,11,203,17,10,47,322,31,12,66,354,23,1*76
$GAGSV,3,2,09,16,10,252,25,19,67,103,25,25,07,297,15,29,30,046,16,1*70
$GAGSV,3,3,09,33,41,097,29,1*4C
$GAGSV,3,1,10,04,34,192,26,06,11,203,27,10,47,322,32,11,21,308,16,7*70
$GAGSV,3,2,10,12,66,354,27,16,10,252,25,19,67,103,33,25,07,297,27,7*71
$GAGSV,3,3,10,29,30,046,24,33,41,097,36,7*70
$GAGSV,1,1,01,31,00,203,,0*46
$GBGSV,2,1,08,19,45,239,30,20,78,003,32,29,80,246,27,30,37,150,27,3*72
$GBGSV,2,2,08,32,23,045,19,35,26,315,29,47,68,160,22,48,74,261,24,3*7D
$GBGSV,2,1,08,19,45,239,19,20,78,003,26,29,80,246,21,30,37,150,26,5*7D
$GBGSV,2,2,08,32,23,045,20,35,26,315,19,47,68,160,23,48,74,261,32,5*74
$GBGSV,2,1,07,19,45,239,27,20,78,003,21,29,80,246,16,30,37,150,16,8*72
$GBGSV,2,2,07,35,26,315,15,47,68,160,22,48,74,261,30,8*4A
$GNGLL,3509.37224,N,07925.36262,W,032042.00,A,A*67
$GNRMC,032043.00,A,3509.37224,N,07925.36266,W,0.026,,060226,,,A,V*05
$GNVTG,,T,,M,0.026,N,0.048,K,A*35
$GNGGA,032043.00,3509.37224,N,07925.36266,W,1,12,0.70,139.9,M,-33.6,M,,*7A
$GNGSA,M,3,05,11,13,15,18,21,23,29,,,,,1.27,0.70,1.06,1*0A
$GNGSA,M,3,04,10,12,16,19,29,33,,,,,,1.27,0.70,1.06,3*09
$GNGSA,M,3,19,20,29,30,32,35,,,,,,,1.27,0.70,1.06,4*09
$GPGSV,3,1,10,05,45,046,39,11,18,115,23,13,61,077,45,15,76,188,26,1*62
$GPGSV,3,2,10,18,36,315,32,21,19,062,26,23,24,270,25,29,57,227,34,1*69
$GPGSV,3,3,10,44,33,233,30,46,24,244,32,1*63
$GPGSV,2,1,06,05,45,046,22,15,76,188,17,18,36,315,16,21,19,062,13,6*63
$GPGSV,2,2,06,23,24,270,28,29,57,227,23,6*62
$GPGSV,1,1,03,18,36,315,22,23,24,270,27,24,09,165,15,8*5B
$GPGSV,1,1,03,20,69,075,,30,08,050,,48,27,241,,0*59
$GAGSV,3,1,09,04,34,192,21,06,11,203,17,10,47,322,31,12,66,354,23,1*76
$GAGSV,3,2,09,16,10,252,25,19,67,103,25,25,07,297,15,29,30,046,16,1*70
$GAGSV,3,3,09,33,41,097,29,1*4C
$GAGSV,3,1,10,04,34,192,27,06,11,203,27,10,47,322,32,11,21,308,14,7*73
$GAGSV,3,2,10,12,66,354,27,16,10,252,25,19,67,103,33,25,07,297,27,7*71
$GAGSV,3,3,10,29,30,046,24,33,41,097,36,7*70
$GAGSV,1,1,01,31,00,203,,0*46
$GBGSV,2,1,08,19,45,239,30,20,78,003,32,29,80,246,27,30,37,150,27,3*72
$GBGSV,2,2,08,32,23,045,19,35,26,315,29,47,68,160,22,48,74,261,24,3*7D
$GBGSV,2,1,08,19,45,239,19,20,78,003,26,29,80,246,21,30,37,150,26,5*7D
$GBGSV,2,2,08,32,23,045,20,35,26,315,18,47,68,160,23,48,74,261,32,5*75
$GBGSV,2,1,07,19,45,239,27,20,78,003,20,29,80,246,15,30,37,150,16,8*70
$GBGSV,2,2,07,35,26,315,16,47,68,160,22,48,74,261,30,8*49
$GNGLL,3509.37224,N,07925.36266,W,032043.00,A,A*62
$GNRMC,032044.00,A,3509.37225,N,07925.36269,W,0.067,,060226,,,A,V*09
$GNVTG,,T,,M,0.067,N,0.123,K,A*3C
$GNGGA,032044.00,3509.37225,N,07925.36269,W,1,12,0.70,140.0,M,-33.6,M,,*74
$GNGSA,M,3,05,11,13,15,18,21,23,29,,,,,1.27,0.70,1.06,1*0A
$GNGSA,M,3,04,10,12,16,19,29,33,,,,,,1.27,0.70,1.06,3*09
$GNGSA,M,3,19,20,29,30,32,35,,,,,,,1.27,0.70,1.06,4*09
$GPGSV,3,1,10,05,45,046,39,11,18,115,24,13,61,077,45,15,76,188,27,1*64
$GPGSV,3,2,10,18,36,315,32,21,19,062,26,23,24,270,25,29,57,227,34,1*69
$GPGSV,3,3,10,44,33,233,30,46,24,244,32,1*63
$GPGSV,2,1,06,05,45,046,22,15,76,188,18,18,36,315,16,21,19,062,13,6*6C
$GPGSV,2,2,06,23,24,270,28,29,57,227,23,6*62
$GPGSV,1,1,03,18,36,315,22,23,24,270,27,24,09,165,15,8*5B
$GPGSV,1,1,03,20,69,075,,30,08,050,,48,27,241,,0*59
$GAGSV,3,1,09,04,34,192,21,06,11,203,18,10,47,322,31,12,66,354,24,1*7E
$GAGSV,3,2,09,16,10,252,25,19,67,103,25,25,07,297,14,29,30,046,16,1*71
$GAGSV,3,3,09,33,41,097,29,1*4C
$GAGSV,3,1,10,04,34,192,27,06,11,203,27,10,47,322,32,11,21,308,19,7*7E
$GAGSV,3,2,10,12,66,354,27,16,10,252,25,19,67,103,33,25,07,297,27,7*71
$GAGSV,3,3,10,29,30,046,24,33,41,097,36,7*70
$GAGSV,1,1,01,31,00,203,,0*46
$GBGSV,2,1,08,19,45,239,30,20,78,003,32,29,80,246,27,30,37,150,27,3*72
$GBGSV,2,2,08,32,23,045,19,35,26,315,29,47,68,160,22,48,74,261,25,3*7C
$GBGSV,2,1,08,19,45,239,19,20,78,003,26,29,80,246,21,30,37,150,26,5*7D
$GBGSV,2,2,08,32,23,045,19,35,26,315,18,47,68,160,23,48,74,261,31,5*7C
$GBGSV,2,1,07,19,45,239,27,20,78,003,21,29,80,246,14,30,37,150,16,8*70
$GBGSV,2,2,07,35,26,315,16,47,68,160,22,48,74,261,30,8*49
$GNGLL,3509.37225,N,07925.36269,W,032044.00,A,A*6B
$GNRMC,032045.00,A,3509.37224,N,07925.36273,W,0.028,,060226,,,A,V*09
$GNVTG,,T,,M,0.028,N,0.051,K,A*33
$GNGGA,032045.00,3509.37224,N,07925.36273,W,1,12,0.70,140.2,M,-33.6,M,,*7D
$GNGSA,M,3,05,11,13,15,18,21,23,29,,,,,1.27,0.70,1.06,1*0A
$GNGSA,M,3,04,10,12,16,19,29,33,,,,,,1.27,0.70,1.06,3*09
$GNGSA,M,3,19,20,29,30,32,35,,,,,,,1.27,0.70,1.06,4*09
$GPGSV,3,1,10,05,45,046,39,11,18,115,24,13,61,077,45,15,76,188,26,1*65
$GPGSV,3,2,10,18,36,315,33,21,19,062,25,23,24,270,25,29,57,227,34,1*6B
$GPGSV,3,3,10,44,33,233,30,46,24,244,32,1*63
$GPGSV,2,1,06,05,45,046,22,15,76,188,17,18,36,315,16,21,19,062,13,6*63
$GPGSV,2,2,06,23,24,270,28,29,57,227,23,6*62
$GPGSV,1,1,03,18,36,315,22,23,24,270,27,24,09,165,15,8*5B
$GPGSV,1,1,03,20,69,075,,30,08,050,,48,27,241,,0*59
$GAGSV,3,1,09,04,34,192,21,06,11,203,18,10,47,322,31,12,66,354,24,1*7E
$GAGSV,3,2,09,16,10,252,25,19,67,103,25,25,07,297,13,29,30,046,16,1*76
$GAGSV,3,3,09,33,41,097,29,1*4C
$GAGSV,3,1,10,04,34,192,27,06,11,203,27,10,47,322,32,11,21,308,14,7*73
$GAGSV,3,2,10,12,66,354,27,16,10,252,25,19,67,103,33,25,07,297,27,7*71
$GAGSV,3,3,10,29,30,046,23,33,41,097,36,7*77
$GAGSV,1,1,01,31,00,203,,0*46
$GBGSV,2,1,08,19,45,239,29,20,78,003,32,29,80,246,27,30,37,150,27,3*7A
$GBGSV,2,2,08,32,23,045,19,35,26,315,29,47,68,160,22,48,74,261,25,3*7C
$GBGSV,2,1,08,19,45,239,20,20,78,003,26,29,80,246,21,30,37,150,26,5*77
$GBGSV,2,2,08,32,23,045,20,35,26,315,18,47,68,160,23,48,74,261,31,5*76
$GBGSV,2,1,07,19,45,239,26,20,78,003,21,29,80,246,13,30,37,150,17,8*77
$GBGSV,2,2,07,35,26,315,17,47,68,160,22,48,74,261,30,8*48
$GNGLL,3509.37224,N,07925.36273,W,032045.00,A,A*60
$GNRMC,032046.00,A,3509.37222,N,07925.36276,W,0.041,,060226,,,A,V*06
$GNVTG,,T,,M,0.041,N,0.077,K,A*38
$GNGGA,032046.00,3509.37222,N,07925.36276,W,1,12,0.70,140.2,M,-33.6,M,,*7D
$GNGSA,M,3,05,11,13,15,18,21,23,29,,,,,1.27,0.70,1.06,1*0A
$GNGSA,M,3,04,10,12,16,19,29,33,,,,,,1.27,0.70,1.06,3*09
$GNGSA,M,3,19,20,29,30,32,35,,,,,,,1.27,0.70,1.06,4*09
$GPGSV,3,1,10,05,45,046,39,11,18,115,24,13,61,077,45,15,76,188,27,1*64
$GPGSV,3,2,10,18,36,315,33,21,19,062,25,23,24,270,25,29,57,227,34,1*6B
$GPGSV,3,3,10,44,33,233,30,46,24,244,32,1*63
$GPGSV,2,1,06,05,45,046,22,15,76,188,17,18,36,315,15,21,19,062,13,6*60
$GPGSV,2,2,06,23,24,270,27,29,57,227,23,6*6D
$GPGSV,1,1,03,18,36,315,22,23,24,270,27,24,09,165,16,8*58
$GPGSV,1,1,03,20,69,075,,30,08,050,,48,27,241,,0*59
$GAGSV,3,1,09,04,34,192,20,06,11,203,18,10,47,322,31,12,66,354,24,1*7F
$GAGSV,3,2,09,16,10,252,25,19,67,103,25,25,07,297,12,29,30,046,16,1*77
$GAGSV,3,3,09,33,41,097,28,1*4D
$GAGSV,3,1,10,04,34,192,27,06,11,203,27,10,47,322,32,11,21,308,10,7*77
$GAGSV,3,2,10,12,66,354,27,16,10,252,25,19,67,103,33,25,07,297,27,7*71
$GAGSV,3,3,10,29,30,046,23,33,41,097,36,7*77
$GAGSV,1,1,01,31,00,203,,0*46
$GBGSV,2,1,08,19,45,239,29,20,78,003,32,29,80,246,27,30,37,150,27,3*7A
$GBGSV,2,2,08,32,23,045,20,35,26,315,29,47,68,160,22,48,74,261,25,3*76
$GBGSV,2,1,08,19,45,239,20,20,78,003,25,29,80,246,21,30,37,150,26,5*74
$GBGSV,2,2,08,32,23,045,19,35,26,315,18,47,68,160,23,48,74,261,32,5*7F
$GBGSV,2,1,07,19,45,239,26,20,78,003,20,29,80,246,12,30,37,150,17,8*77
$GBGSV,2,2,07,35,26,315,18,47,68,160,22,48,74,261,29,8*4F
$GNGLL,3509.37222,N,07925.36276,W,032046.00,A,A*60
$GNRMC,032047.00,A,3509.37221,N,07925.36281,W,0.035,,060226,,,A,V*0F
$GNVTG,,T,,M,0.035,N,0.065,K,A*38
$GNGGA,032047.00,3509.37221,N,07925.36281,W,1,12,0.70,140.4,M,-33.6,M,,*71
$GNGSA,M,3,05,13,15,18,21,23,29,,,,,,1.27,0.70,1.06,1*0A
$GNGSA,M,3,04,10,12,16,19,29,33,,,,,,1.27,0.70,1.06,3*09
$GNGSA,M,3,19,20,29,30,32,35,,,,,,,1.27,0.70,1.06,4*09
$GPGSV,3,1,10,05,45,046,39,11,18,115,24,13,61,077,45,15,76,188,27,1*64
$GPGSV,3,2,10,18,36,315,33,21,19,062,25,23,24,270,25,29,57,227,34,1*6B
$GPGSV,3,3,10,44,33,233,30,46,24,244,32,1*63
$GPGSV,2,1,06,05,45,046,22,15,76,188,17,18,36,315,16,21,19,062,12,6*62
$GPGSV,2,2,06,23,24,270,27,29,57,227,23,6*6D
$GPGSV,1,1,03,18,36,315,22,23,24,270,27,24,09,165,16,8*58
$GPGSV,1,1,03,20,69,075,,30,08,050,,48,27,241,,0*59
$GAGSV,3,1,09,04,34,192,21,06,11,203,19,10,47,322,31,12,66,354,24,1*7F
$GAGSV,3,2,09,16,10,252,25,19,67,103,24,25,07,297,12,29,30,046,15,1*75
$GAGSV,3,3,09,33,41,097,28,1*4D
$GAGSV,3,1,10,04,34,192,27,06,11,203,27,10,47,322,32,11,21,308,15,7*72
$GAGSV,3,2,10,12,66,354,27,16,10,252,25,19,67,103,33,25,07,297,27,7*71
$GAGSV,3,3,10,29,30,046,23,33,41,097,36,7*77
$GAGSV,1,1,01,31,00,203,,0*46
$GBGSV,2,1,08,19,45,239,29,20,78,003,32,29,80,246,27,30,37,150,27,3*7A
$GBGSV,2,2,08,32,23,045,19,35,26,315,29,47,68,160,22,48,74,261,25,3*7C
$GBGSV,2,1,08,19,45,239,20,20,78,003,26,29,80,246,21,30,37,150,26,5*77
$GBGSV,2,2,08,32,23,045,20,35,26,315,17,47,68,160,23,48,74,261,32,5*7A
$GBGSV,2,1,07,19,45,239,26,20,78,003,21,29,80,246,12,30,37,150,17,8*76
$GBGSV,2,2,07,35,26,315,18,47,68,160,22,48,74,261,29,8*4F
$GNGLL,3509.37221,N,07925.36281,W,032047.00,A,A*6A
$GNRMC,032048.00,A,3509.37219,N,07925.36284,W,0.023,,060226,,,A,V*09
$GNVTG,,T,,M,0.023,N,0.043,K,A*3B
$GNGGA,032048.00,3509.37219,N,07925.36284,W,1,12,0.66,140.4,M,-33.6,M,,*77
$GNGSA,M,3,05,13,15,18,21,23,29,,,,,,1.16,0.66,0.96,1*07
$GNGSA,M,3,04,06,10,12,16,19,29,33,,,,,1.16,0.66,0.96,3*02
$GNGSA,M,3,19,20,29,30,32,35,,,,,,,1.16,0.66,0.96,4*04
$GPGSV,3,1,10,05,45,046,39,11,18,115,24,13,61,077,45,15,76,188,28,1*6B
$GPGSV,3,2,10,18,36,315,33,21,19,062,24,23,24,270,25,29,57,227,34,1*6A
$GPGSV,3,3,10,44,33,233,31,46,24,244,32,1*62
$GPGSV,2,1,06,05,45,046,22,15,76,188,17,18,36,315,16,21,19,062,13,6*63
$GPGSV,2,2,06,23,24,270,27,29,57,227,24,6*6A
$GPGSV,1,1,03,18,36,315,22,23,24,270,27,24,09,165,16,8*58
$GPGSV,1,1,03,20,69,075,,30,08,050,,48,27,241,,0*59
$GAGSV,3,1,09,04,34,192,20,06,11,203,19,10,47,322,31,12,66,354,24,1*7E
$GAGSV,3,2,09,16,10,252,25,19,67,103,24,25,07,297,13,29,30,046,16,1*77
$GAGSV,3,3,09,33,41,097,29,1*4C
$GAGSV,3,1,10,04,34,192,27,06,11,203,27,10,47,322,32,11,21,308,19,7*7E
$GAGSV,3,2,10,12,66,354,27,16,10,252,24,19,67,103,33,25,07,297,27,7*70
$GAGSV,3,3,10,29,30,046,24,33,41,097,36,7*70
$GAGSV,1,1,01,31,00,203,,0*46
$GBGSV,2,1,08,19,45,239,29,20,78,003,32,29,80,246,27,30,37,150,28,3*75
$GBGSV,2,2,08,32,23,045,19,35,26,315,30,47,68,160,22,48,74,261,24,3*75
$GBGSV,2,1,08,19,45,239,20,20,78,003,26,29,80,246,21,30,37,150,26,5*77
$GBGSV,2,2,08,32,23,045,20,35,26,315,17,47,68,160,23,48,74,261,31,5*79
$GBGSV,2,1,07,19,45,239,26,20,78,003,21,29,80,246,13,30,37,150,17,8*77
$GBGSV,2,2,07,35,26,315,18,47,68,160,22,48,74,261,29,8*4F
$GNGLL,3509.37219,N,07925.36284,W,032048.00,A,A*6B
$GNRMC,032049.00,A,3509.37217,N,07925.36287,W,0.022,,060226,,,A,V*04
$GNVTG,,T,,M,0.022,N,0.040,K,A*39
$GNGGA,032049.00,3509.37217,N,07925.36287,W,1,12,0.66,140.5,M,-33.6,M,,*7A
$GNGSA,M,3,05,13,15,18,21,23,29,,,,,,1.16,0.66,0.96,1*07
$GNGSA,M,3,04,06,10,12,16,19,29,33,,,,,1.16,0.66,0.96,3*02
$GNGSA,M,3,19,20,29,30,32,35,,,,,,,1.16,0.66,0.96,4*04
$GPGSV,3,1,10,05,45,046,39,11,18,115,24,13,61,077,45,15,76,188,28,1*6B
$GPGSV,3,2,10,18,36,315,34,21,19,062,24,23,24,270,25,29,57,227,34,1*6D
$GPGSV,3,3,10,44,33,233,31,46,24,244,32,1*62
$GPGSV,2,1,06,05,45,046,21,15,76,188,18,18,36,315,16,21,19,062,12,6*6E
$GPGSV,2,2,06,23,24,270,27,29,57,227,24,6*6A
$GPGSV,1,1,03,18,36,315,23,23,24,270,27,24,09,165,15,8*5A
$GPGSV,1,1,03,20,69,075,,30,08,050,,48,27,241,,0*59
$GAGSV,3,1,09,04,34,192,20,06,11,203,19,10,47,322,31,12,66,354,24,1*7E
$GAGSV,3,2,09,16,10,252,24,19,67,103,24,25,07,297,12,29,30,046,15,1*74
$GAGSV,3,3,09,33,41,097,28,1*4D
$GAGSV,3,1,10,04,34,192,27,06,11,203,27,10,47,322,32,11,21,308,19,7*7E
$GAGSV,3,2,10,12,66,354,27,16,10,252,24,19,67,103,33,25,07,297,27,7*70
$GAGSV,3,3,10,29,30,046,24,33,41,097,36,7*70
$GAGSV,1,1,01,31,00,203,,0*46
$GBGSV,2,1,08,19,45,239,28,20,78,003,31,29,80,246,27,30,37,150,27,3*78
$GBGSV,2,2,08,32,23,045,19,35,26,315,30,47,68,160,23,48,74,261,24,3*74
$GBGSV,2,1,08,19,45,239,20,20,78,003,26,29,80,246,21,30,37,150,26,5*77
$GBGSV,2,2,08,32,23,045,19,35,26,315,17,47,68,160,24,48,74,261,32,5*77
$GBGSV,2,1,07,19,45,239,26,20,78,003,21,29,80,246,15,30,37,150,16,8*70
$GBGSV,2,2,07,35,26,315,17,47,68,160,22,48,74,261,29,8*40
$GNGLL,3509.37217,N,07925.36287,W,032049.00,A,A*67
$GNRMC,032050.00,A,3509.37216,N,07925.36289,W,0.015,,060226,,,A,V*07
$GNVTG,,T,,M,0.015,N,0.028,K,A*33
$GNGGA,032050.00,3509.37216,N,07925.36289,W,1,12,0.66,140.5,M,-33.6,M,,*7D
$GNGSA,M,3,05,11,13,15,18,21,23,29,,,,,1.16,0.66,0.96,1*07
$GNGSA,M,3,04,06,10,12,16,19,29,33,,,,,1.16,0.66,0.96,3*02
$GNGSA,M,3,19,20,29,30,32,35,,,,,,,1.16,0.66,0.96,4*04
$GPGSV,3,1,10,05,45,046,39,11,18,115,25,13,61,077,45,15,76,188,28,1*6A
$GPGSV,3,2,10,18,36,315,34,21,19,062,23,23,24,270,25,29,57,227,34,1*6A
$GPGSV,3,3,10,44,33,233,31,46,24,244,32,1*62
$GPGSV,1,1,01,11,18,115,16,5*5A
$GPGSV,2,1,06,05,45,046,21,15,76,188,18,18,36,315,15,21,19,062,09,6*67
$GPGSV,2,2,06,23,24,270,26,29,57,227,25,6*6A
$GPGSV,1,1,03,18,36,315,22,23,24,270,27,24,09,165,15,8*5B
$GPGSV,1,1,03,20,69,075,,30,08,050,,48,27,241,,0*59
$GAGSV,3,1,09,04,34,192,20,06,11,203,19,10,47,322,31,12,66,354,24,1*7E
$GAGSV,3,2,09,16,10,252,25,19,67,103,24,25,07,297,13,29,30,046,14,1*75
$GAGSV,3,3,09,33,41,097,29,1*4C
$GAGSV,3,1,10,04,34,192,27,06,11,203,27,10,47,322,32,11,21,308,20,7*74
$GAGSV,3,2,10,12,66,354,27,16,10,252,24,19,67,103,33,25,07,297,27,7*70
$GAGSV,3,3,10,29,30,046,24,33,41,097,36,7*70
$GAGSV,1,1,01,31,00,203,,0*46
$GBGSV,2,1,08,19,45,239,28,20,78,003,31,29,80,246,27,30,37,150,28,3*77
$GBGSV,2,2,08,32,23,045,19,35,26,315,30,47,68,160,23,48,74,261,24,3*74
$GBGSV,2,1,08,19,45,239,20,20,78,003,26,29,80,246,21,30,37,150,26,5*77
$GBGSV,2,2,08,32,23,045,20,35,26,315,17,47,68,160,24,48,74,261,32,5*7D
$GBGSV,2,1,07,19,45,239,26,20,78,003,21,29,80,246,16,30,37,150,16,8*73
$GBGSV,2,2,07,35,26,315,17,47,68,160,22,48,74,261,29,8*40
$GNGLL,3509.37216,N,07925.36289,W,032050.00,A,A*60
$GNRMC,032051.00,A,3509.37214,N,07925.36292,W,0.023,,060226,,,A,V*0B
$GNVTG,,T,,M,0.023,N,0.043,K,A*3B
$GNGGA,032051.00,3509.37214,N,07925.36292,W,1,12,0.66,140.6,M,-33.6,M,,*77
$GNGSA,M,3,05,11,13,15,18,21,23,29,,,,,1.16,0.66,0.96,1*07
$GNGSA,M,3,04,06,10,12,16,19,29,33,,,,,1.16,0.66,0.96,3*02
$GNGSA,M,3,19,20,29,30,32,35,,,,,,,1.16,0.66,0.96,4*04
$GPGSV,3,1,10,05,45,046,39,11,18,115,25,13,61,077,45,15,76,188,29,1*6B
$GPGSV,3,2,10,18,36,315,34,21,19,062,22,23,24,270,25,29,57,227,34,1*6B
$GPGSV,3,3,10,44,33,233,30,46,24,244,32,1*63
$GPGSV,1,1,01,11,18,115,16,5*5A
$GPGSV,2,1,05,05,45,046,21,15,76,188,19,18,36,315,16,23,24,270,26,6*66
$GPGSV,2,2,05,29,57,227,25,6*5F
$GPGSV,1,1,03,18,36,315,22,23,24,270,27,24,09,165,15,8*5B
$GPGSV,1,1,03,20,69,075,,30,08,050,,48,27,241,,0*59
$GAGSV,3,1,10,04,34,192,20,06,11,203,18,10,47,322,31,11,21,308,15,1*7C
$GAGSV,3,2,10,12,66,354,24,16,10,252,24,19,67,103,24,25,07,297,11,1*76
$GAGSV,3,3,10,29,30,046,14,33,41,097,28,1*7A
$GAGSV,3,1,10,04,34,192,27,06,11,203,27,10,47,322,32,11,21,308,19,7*7E
$GAGSV,3,2,10,12,66,354,27,16,10,252,24,19,67,103,33,25,07,297,27,7*70
$GAGSV,3,3,10,29,30,046,24,33,41,097,36,7*70
$GAGSV,1,1,01,31,00,203,,0*46
$GBGSV,2,1,08,19,45,239,28,20,78,003,31,29,80,246,27,30,37,150,28,3*77
$GBGSV,2,2,08,32,23,045,19,35,26,315,30,47,68,160,23,48,74,261,24,3*74
$GBGSV,2,1,08,19,45,239,20,20,78,003,25,29,80,246,21,30,37,150,26,5*74
$GBGSV,2,2,08,32,23,045,19,35,26,315,18,47,68,160,24,48,74,261,31,5*7B
$GBGSV,2,1,07,19,45,239,26,20,78,003,21,29,80,246,16,30,37,150,16,8*73
$GBGSV,2,2,07,35,26,315,17,47,68,160,21,48,74,261,29,8*43
$GNGLL,3509.37214,N,07925.36292,W,032051.00,A,A*69
$GNRMC,032052.00,A,3509.37212,N,07925.36295,W,0.002,,060226,,,A,V*0A
$GNVTG,,T,,M,0.002,N,0.003,K,A*3C
$GNGGA,032052.00,3509.37212,N,07925.36295,W,1,12,0.66,140.6,M,-33.6,M,,*75
$GNGSA,M,3,05,13,15,18,21,23,29,,,,,,1.16,0.66,0.96,1*07
$GNGSA,M,3,04,06,10,12,16,19,29,33,,,,,1.16,0.66,0.96,3*02
$GNGSA,M,3,19,20,29,30,32,35,,,,,,,1.16,0.66,0.96,4*04
$GPGSV,3,1,10,05,45,046,39,11,18,115,25,13,61,077,45,15,76,188,30,1*63
$GPGSV,3,2,10,18,36,315,34,21,19,062,21,23,24,270,25,29,57,227,33,1*6F
$GPGSV,3,3,10,44,33,233,31,46,24,244,32,1*62
$GPGSV,2,1,06,05,45,046,21,11,18,115,16,15,76,188,18,18,36,315,16,6*69
$GPGSV,2,2,06,23,24,270,26,29,57,227,25,6*6A
$GPGSV,1,1,03,18,36,315,22,23,24,270,27,24,09,165,15,8*5B
$GPGSV,1,1,03,20,69,075,,30,08,050,,48,27,241,,0*59
$GAGSV,3,1,10,04,34,192,20,06,11,203,19,10,47,322,31,11,21,308,14,1*7C
$GAGSV,3,2,10,12,66,354,23,16,10,252,24,19,67,103,24,25,07,297,10,1*70
$GAGSV,3,3,10,29,30,046,14,33,41,097,28,1*7A
$GAGSV,3,1,10,04,34,192,27,06,11,203,27,10,47,322,32,11,21,308,20,7*74
$GAGSV,3,2,10,12,66,354,27,16,10,252,24,19,67,103,33,25,07,297,27,7*70
$GAGSV,3,3,10,29,30,046,23,33,41,097,36,7*77
$GAGSV,1,1,01,31,00,203,,0*46
$GBGSV,2,1,08,19,45,239,27,20,78,003,31,29,80,246,27,30,37,150,28,3*78
$GBGSV,2,2,08,32,23,045,20,35,26,315,30,47,68,160,22,48,74,261,25,3*7E
$GBGSV,2,1,08,19,45,239,21,20,78,003,26,29,80,246,21,30,37,150,26,5*76
$GBGSV,2,2,08,32,23,045,19,35,26,315,17,47,68,160,24,48,74,261,32,5*77
$GBGSV,2,1,07,19,45,239,26,20,78,003,22,29,80,246,16,30,37,150,17,8*71
$GBGSV,2,2,07,35,26,315,18,47,68,160,21,48,74,261,29,8*4C
$GNGLL,3509.37212,N,07925.36295,W,032052.00,A,A*6B
$GNRMC,032053.00,A,3509.37211,N,07925.36297,W,0.015,,060226,,,A,V*0C
$GNVTG,,T,,M,0.015,N,0.028,K,A*33
$GNGGA,032053.00,3509.37211,N,07925.36297,W,1,12,0.66,140.7,M,-33.6,M,,*74
$GNGSA,M,3,05,13,15,18,23,29,,,,,,,1.16,0.66,0.96,1*04
$GNGSA,M,3,04,06,10,12,16,19,29,33,,,,,1.16,0.66,0.96,3*02
$GNGSA,M,3,19,20,29,30,32,35,,,,,,,1.16,0.66,0.96,4*04
$GPGSV,3,1,09,05,45,046,39,11,18,115,25,13,61,077,45,15,76,188,30,1*6B
$GPGSV,3,2,09,18,36,315,34,23,24,270,26,29,57,227,33,44,33,233,31,1*68
$GPGSV,3,3,09,46,24,244,32,1*5A
$GPGSV,2,1,06,05,45,046,21,11,18,115,16,15,76,188,18,18,36,315,16,6*69
$GPGSV,2,2,06,23,24,270,25,29,57,227,25,6*69
$GPGSV,1,1,03,18,36,315,22,23,24,270,27,24,09,165,16,8*58
$GPGSV,1,1,04,20,69,075,,21,19,062,,30,08,050,,48,27,241,,0*61
$GAGSV,3,1,10,04,34,192,20,06,11,203,19,10,47,322,31,11,21,308,12,1*7A
$GAGSV,3,2,10,12,66,354,23,16,10,252,24,19,67,103,24,25,07,297,08,1*79
$GAGSV,3,3,10,29,30,046,13,33,41,097,28,1*7D
$GAGSV,3,1,10,04,34,192,27,06,11,203,27,10,47,322,32,11,21,308,20,7*74
$GAGSV,3,2,10,12,66,354,27,16,10,252,24,19,67,103,33,25,07,297,27,7*70
$GAGSV,3,3,10,29,30,046,23,33,41,097,36,7*77
$GAGSV,1,1,01,31,00,203,,0*46
$GBGSV,2,1,08,19,45,239,27,20,78,003,30,29,80,246,27,30,37,150,28,3*79
$GBGSV,2,2,08,32,23,045,20,35,26,315,31,47,68,160,22,48,74,261,25,3*7F
$GBGSV,2,1,08,19,45,239,21,20,78,003,26,29,80,246,21,30,37,150,25,5*75
$GBGSV,2,2,08,32,23,045,20,35,26,315,18,47,68,160,24,48,74,261,32,5*72
$GBGSV,2,1,07,19,45,239,26,20,78,003,22,29,80,246,14,30,37,150,17,8*73
$GBGSV,2,2,07,35,26,315,18,47,68,160,21,48,74,261,29,8*4C
$GNGLL,3509.37211,N,07925.36297,W,032053.00,A,A*6B
$GNRMC,032054.00,A,3509.37209,N,07925.36299,W,0.021,,060226,,,A,V*0B
$GNVTG,,T,,M,0.021,N,0.038,K,A*35
$GNGGA,032054.00,3509.37209,N,07925.36299,W,1,12,0.66,140.8,M,-33.6,M,,*7B
$GNGSA,M,3,05,13,15,18,23,29,,,,,,,1.16,0.66,0.96,1*04
$GNGSA,M,3,04,06,10,12,16,19,29,33,,,,,1.16,0.66,0.96,3*02
$GNGSA,M,3,19,20,29,30,32,35,,,,,,,1.16,0.66,0.96,4*04
$GPGSV,3,1,09,05,45,046,39,11,18,115,24,13,61,077,45,15,76,188,30,1*6A
$GPGSV,3,2,09,18,36,315,34,23,24,270,26,29,57,227,33,44,33,233,30,1*69
$GPGSV,3,3,09,46,24,244,32,1*5A
$GPGSV,2,1,06,05,45,046,21,11,18,115,17,15,76,188,18,18,36,315,15,6*6B
$GPGSV,2,2,06,23,24,270,25,29,57,227,25,6*69
$GPGSV,1,1,03,18,36,315,22,23,24,270,27,24,09,165,16,8*58
$GPGSV,1,1,04,20,69,075,,21,19,062,,30,08,050,,48,27,241,,0*61
$GAGSV,3,1,09,04,34,192,20,06,11,203,19,10,47,322,31,11,21,308,11,1*71
$GAGSV,3,2,09,12,66,354,23,16,10,252,25,19,67,103,24,29,30,046,14,1*7B
$GAGSV,3,3,09,33,41,097,28,1*4D
$GAGSV,3,1,10,04,34,192,27,06,11,203,27,10,47,322,32,11,21,308,20,7*74
$GAGSV,3,2,10,12,66,354,27,16,10,252,23,19,67,103,33,25,07,297,27,7*77
$GAGSV,3,3,10,29,30,046,23,33,41,097,36,7*77
$GAGSV,1,1,01,31,00,203,,0*46
$GBGSV,2,1,08,19,45,239,26,20,78,003,30,29,80,246,27,30,37,150,28,3*78
$GBGSV,2,2,08,32,23,045,20,35,26,315,31,47,68,160,22,48,74,261,25,3*7F
$GBGSV,2,1,08,19,45,239,21,20,78,003,26,29,80,246,21,30,37,150,25,5*75
$GBGSV,2,2,08,32,23,045,19,35,26,315,18,47,68,160,24,48,74,261,32,5*78
$GBGSV,2,1,07,19,45,239,27,20,78,003,21,29,80,246,14,30,37,150,17,8*71
$GBGSV,2,2,07,35,26,315,18,47,68,160,22,48,74,261,29,8*4F
$GNGLL,3509.37209,N,07925.36299,W,032054.00,A,A*6B
$GNRMC,032055.00,A,3509.37207,N,07925.36302,W,0.015,,060226,,,A,V*00
$GNVTG,,T,,M,0.015,N,0.028,K,A*33
$GNGGA,032055.00,3509.37207,N,07925.36302,W,1,12,0.66,140.9,M,-33.6,M,,*76
$GNGSA,M,3,05,11,13,15,18,23,29,,,,,,1.16,0.66,0.96,1*04
$GNGSA,M,3,04,06,10,12,16,19,29,33,,,,,1.16,0.66,0.96,3*02
$GNGSA,M,3,19,20,29,30,32,35,,,,,,,1.16,0.66,0.96,4*04
$GPGSV,3,1,09,05,45,046,39,11,18,115,24,13,61,077,45,15,76,188,30,1*6A
$GPGSV,3,2,09,18,36,315,34,23,24,270,26,29,57,227,33,44,33,233,30,1*69
$GPGSV,3,3,09,46,24,244,32,1*5A
$GPGSV,2,1,06,05,45,046,21,11,18,115,18,15,76,188,17,18,36,315,15,6*6B
$GPGSV,2,2,06,23,24,270,25,29,57,227,25,6*69
$GPGSV,1,1,03,18,36,315,22,23,24,270,27,24,09,165,17,8*59
$GPGSV,1,1,04,20,69,075,,21,19,062,,30,08,050,,48,27,241,,0*61
$GAGSV,3,1,09,04,34,192,20,06,11,203,19,10,47,322,31,11,21,308,09,1*78
$GAGSV,3,2,09,12,66,354,23,16,10,252,25,19,67,103,25,29,30,046,14,1*7A
$GAGSV,3,3,09,33,41,097,28,1*4D
$GAGSV,3,1,10,04,34,192,27,06,11,203,27,10,47,322,32,11,21,308,21,7*75
$GAGSV,3,2,10,12,66,354,27,16,10,252,23,19,67,103,33,25,07,297,27,7*77
$GAGSV,3,3,10,29,30,046,23,33,41,097,36,7*77
$GAGSV,1,1,01,31,00,203,,0*46
$GBGSV,2,1,08,19,45,239,26,20,78,003,30,29,80,246,27,30,37,150,28,3*78
$GBGSV,2,2,08,32,23,045,23,35,26,315,31,47,67,160,22,48,74,261,26,3*70
$GBGSV,2,1,08,19,45,239,22,20,78,003,26,29,80,246,20,30,37,150,25,5*77
$GBGSV,2,2,08,32,23,045,18,35,26,315,18,47,67,160,24,48,74,261,31,5*75
$GBGSV,2,1,07,19,45,239,26,20,78,003,21,29,80,246,15,30,37,150,17,8*71
$GBGSV,2,2,07,35,26,315,17,47,67,160,22,48,74,261,29,8*4F
$GNGLL,3509.37207,N,07925.36302,W,032055.00,A,A*67
$GNRMC,032056.00,A,3509.37206,N,07925.36304,W,0.019,,060226,,,A,V*08
$GNVTG,,T,,M,0.019,N,0.035,K,A*33
$GNGGA,032056.00,3509.37206,N,07925.36304,W,1,12,0.66,141.0,M,-33.6,M,,*7A
$GNGSA,M,3,05,13,15,18,23,29,,,,,,,1.16,0.66,0.96,1*04
$GNGSA,M,3,04,06,10,12,16,19,29,33,,,,,1.16,0.66,0.96,3*02
$GNGSA,M,3,19,20,29,30,32,35,,,,,,,1.16,0.66,0.96,4*04
$GPGSV,3,1,09,05,45,046,39,11,18,115,24,13,61,077,45,15,76,188,30,1*6A
$GPGSV,3,2,09,18,36,315,34,23,24,270,26,29,57,227,32,44,33,233,30,1*68
$GPGSV,3,3,09,46,24,244,32,1*5A
$GPGSV,2,1,06,05,45,046,21,11,18,115,18,15,76,188,16,18,36,315,15,6*6A
$GPGSV,2,2,06,23,24,270,25,29,57,227,25,6*69
$GPGSV,1,1,03,18,36,315,22,23,24,270,27,24,09,165,15,8*5B
$GPGSV,1,1,04,20,69,075,,21,19,062,,30,08,050,,48,27,241,,0*61
$GAGSV,3,1,09,04,34,192,20,06,11,203,19,10,47,322,31,11,21,308,09,1*78
$GAGSV,3,2,09,12,66,354,24,16,10,252,24,19,67,103,25,29,30,046,15,1*7D
$GAGSV,3,3,09,33,41,097,28,1*4D
$GAGSV,3,1,10,04,34,192,27,06,11,203,27,10,47,322,32,11,21,308,22,7*76
$GAGSV,3,2,10,12,66,354,27,16,10,252,24,19,67,103,33,25,07,297,27,7*70
$GAGSV,3,3,10,29,30,046,22,33,41,097,36,7*76
$GAGSV,1,1,01,31,00,203,,0*46
$GBGSV,2,1,08,19,45,239,26,20,78,003,30,29,80,246,27,30,37,150,28,3*78
$GBGSV,2,2,08,32,23,045,25,35,26,315,31,47,67,160,22,48,74,262,25,3*76
$GBGSV,2,1,08,19,45,239,22,20,78,003,26,29,80,246,21,30,37,150,25,5*76
$GBGSV,2,2,08,32,23,045,18,35,26,315,18,47,67,160,24,48,74,262,32,5*75
$GBGSV,2,1,07,19,45,239,26,20,78,003,21,29,80,246,15,30,37,150,16,8*70
$GBGSV,2,2,07,35,26,315,17,47,67,160,21,48,74,262,29,8*4F
$GNGLL,3509.37206,N,07925.36304,W,032056.00,A,A*63
$GNRMC,032057.00,A,3509.37204,N,07925.36306,W,0.023,,060226,,,A,V*00
$GNVTG,,T,,M,0.023,N,0.042,K,A*3A
$GNGGA,032057.00,3509.37204,N,07925.36306,W,1,12,0.66,141.0,M,-33.6,M,,*7B
$GNGSA,M,3,05,13,15,18,23,29,,,,,,,1.16,0.66,0.96,1*04
$GNGSA,M,3,04,06,10,12,16,19,29,33,,,,,1.16,0.66,0.96,3*02
$GNGSA,M,3,19,20,29,30,32,35,,,,,,,1.16,0.66,0.96,4*04
$GPGSV,3,1,10,05,45,046,39,11,18,115,24,13,61,077,45,15,76,188,30,1*62
$GPGSV,3,2,10,18,36,315,34,23,24,270,25,29,57,227,32,30,08,050,24,1*6A
$GPGSV,3,3,10,44,33,233,30,46,24,244,32,1*63
$GPGSV,2,1,06,05,45,046,20,11,18,115,19,15,76,188,16,18,36,315,15,6*6A
$GPGSV,2,2,06,23,24,270,24,29,57,227,25,6*68
$GPGSV,1,1,03,18,36,315,22,23,24,270,27,24,09,165,15,8*5B
$GPGSV,1,1,03,20,69,075,,21,19,062,,48,27,241,,0*58
$GAGSV,3,1,09,04,34,192,20,06,11,203,18,10,47,322,32,11,21,308,09,1*7A
$GAGSV,3,2,09,12,66,354,24,16,10,252,24,19,67,103,24,29,30,046,15,1*7C
$GAGSV,3,3,09,33,41,097,28,1*4D
$GAGSV,3,1,10,04,34,192,26,06,11,203,27,10,47,322,32,11,21,308,22,7*77
$GAGSV,3,2,10,12,66,354,27,16,10,252,24,19,67,103,33,25,07,297,27,7*70
$GAGSV,3,3,10,29,30,046,22,33,41,097,36,7*76
$GAGSV,1,1,01,31,00,203,,0*46
$GBGSV,2,1,08,19,45,239,26,20,78,003,30,29,80,246,28,30,37,150,28,3*77
$GBGSV,2,2,08,32,23,045,26,35,26,315,31,47,67,160,22,48,74,262,26,3*76
$GBGSV,2,1,08,19,45,239,21,20,78,003,26,29,80,246,21,30,37,150,25,5*75
$GBGSV,2,2,08,32,23,045,19,35,26,315,18,47,67,160,25,48,74,262,31,5*76
$GBGSV,2,1,07,19,45,239,27,20,78,003,21,29,80,246,15,30,37,150,16,8*71
$GBGSV,2,2,07,35,26,315,17,47,67,160,22,48,74,262,29,8*4C
$GNGLL,3509.37204,N,07925.36306,W,032057.00,A,A*62
$GNRMC,032058.00,A,3509.37202,N,07925.36308,W,0.011,,060226,,,A,V*06
$GNVTG,,T,,M,0.011,N,0.020,K,A*3F
$GNGGA,032058.00,3509.37202,N,07925.36308,W,1,12,0.66,141.1,M,-33.6,M,,*7D
$GNGSA,M,3,05,13,15,18,23,29,,,,,,,1.16,0.66,0.96,1*04
$GNGSA,M,3,04,06,10,12,16,19,29,33,,,,,1.16,0.66,0.96,3*02
$GNGSA,M,3,19,20,29,30,32,35,,,,,,,1.16,0.66,0.96,4*04
$GPGSV,3,1,10,05,45,046,39,11,18,115,23,13,61,077,45,15,76,188,30,1*65
$GPGSV,3,2,10,18,36,315,34,23,24,270,26,29,57,227,32,30,08,050,21,1*6C
$GPGSV,3,3,10,44,33,233,30,46,24,244,32,1*63
$GPGSV,2,1,06,05,45,046,20,11,18,115,20,15,76,188,16,18,36,315,16,6*63
$GPGSV,2,2,06,23,24,270,24,29,57,227,25,6*68
$GPGSV,1,1,03,18,36,315,22,23,24,270,27,24,09,165,15,8*5B
$GPGSV,1,1,03,20,69,075,,21,19,062,,48,27,241,,0*58
$GAGSV,3,1,09,04,34,192,20,06,11,203,19,10,47,322,31,11,21,308,10,1*70
$GAGSV,3,2,09,12,66,354,24,16,10,252,24,19,67,103,24,29,30,046,15,1*7C
$GAGSV,3,3,09,33,41,097,28,1*4D
$GAGSV,3,1,10,04,34,192,27,06,11,203,27,10,47,322,32,11,21,308,22,7*76
$GAGSV,3,2,10,12,66,354,27,16,10,252,24,19,67,103,33,25,07,297,27,7*70
$GAGSV,3,3,10,29,30,046,23,33,41,097,36,7*77
$GAGSV,1,1,01,31,00,203,,0*46
$GBGSV,2,1,08,19,45,239,26,20,78,003,30,29,80,246,28,30,37,150,27,3*78
$GBGSV,2,2,08,32,23,045,27,35,26,315,32,47,67,160,23,48,74,262,26,3*75
$GBGSV,2,1,08,19,45,239,22,20,78,003,26,29,80,246,21,30,37,150,25,5*76
$GBGSV,2,2,08,32,23,045,19,35,26,315,17,47,67,160,24,48,74,262,32,5*7B
$GBGSV,2,1,07,19,45,239,26,20,78,003,20,29,80,246,15,30,37,150,17,8*70
$GBGSV,2,2,07,35,26,315,18,47,67,160,21,48,74,262,29,8*40
$GNGLL,3509.37202,N,07925.36308,W,032058.00,A,A*65
$GNRMC,032059.00,A,3509.37201,N,07925.36311,W,0.021,,060226,,,A,V*0F
$GNVTG,,T,,M,0.021,N,0.038,K,A*35
$GNGGA,032059.00,3509.37201,N,07925.36311,W,1,12,0.66,141.2,M,-33.6,M,,*74
$GNGSA,M,3,05,13,15,18,23,29,,,,,,,1.16,0.66,0.96,1*04
$GNGSA,M,3,04,06,10,12,16,19,29,33,,,,,1.16,0.66,0.96,3*02
$GNGSA,M,3,19,20,29,30,32,35,,,,,,,1.16,0.66,0.96,4*04
$GPGSV,3,1,09,05,45,046,39,11,18,115,23,13,61,077,45,15,76,188,30,1*6D
$GPGSV,3,2,09,18,36,315,34,23,24,270,26,29,57,227,32,44,33,233,31,1*69
$GPGSV,3,3,09,46,24,244,33,1*5B
$GPGSV,2,1,06,05,45,046,20,11,18,115,20,15,76,188,16,18,36,315,17,6*62
$GPGSV,2,2,06,23,24,270,24,29,57,227,24,6*69
$GPGSV,1,1,03,18,36,315,22,23,24,270,27,24,09,165,14,8*5A
$GPGSV,1,1,04,20,69,075,,21,19,062,,30,08,050,,48,27,241,,0*61
$GAGSV,3,1,09,04,34,192,20,06,11,203,19,10,47,322,31,11,21,308,10,1*70
$GAGSV,3,2,09,12,66,354,24,16,10,252,24,19,67,103,24,29,30,046,13,1*7A
$GAGSV,3,3,09,33,41,097,29,1*4C
$GAGSV,3,1,10,04,34,192,27,06,11,203,26,10,47,322,33,11,21,308,22,7*76
$GAGSV,3,2,10,12,66,354,27,16,10,252,24,19,67,103,33,25,07,297,27,7*70
$GAGSV,3,3,10,29,30,046,23,33,41,097,36,7*77
$GAGSV,1,1,01,31,00,203,,0*46
$GBGSV,2,1,08,19,45,239,26,20,78,003,30,29,80,246,27,30,37,150,28,3*78
$GBGSV,2,2,08,32,23,045,27,35,26,315,32,47,67,160,23,48,74,262,25,3*76
$GBGSV,2,1,08,19,45,239,21,20,78,003,26,29,80,246,21,30,37,150,25,5*75
$GBGSV,2,2,08,32,23,045,20,35,26,315,18,47,67,160,24,48,74,262,32,5*7E
$GBGSV,2,1,07,19,45,239,26,20,78,003,21,29,80,246,15,30,37,150,16,8*70
$GBGSV,2,2,07,35,26,315,18,47,67,160,21,48,74,262,29,8*40
$GNGLL,3509.37201,N,07925.36311,W,032059.00,A,A*6F
$GNRMC,032100.00,A,3509.37200,N,07925.36313,W,0.025,,060226,,,A,V*05
$GNVTG,,T,,M,0.025,N,0.046,K,A*38
$GNGGA,032100.00,3509.37200,N,07925.36313,W,1,12,0.63,141.3,M,-33.6,M,,*7E
$GNGSA,M,3,05,13,15,18,23,29,,,,,,,1.13,0.63,0.94,1*06
$GNGSA,M,3,04,06,10,11,12,16,19,29,33,,,,1.13,0.63,0.94,3*00
$GNGSA,M,3,19,20,29,30,32,35,,,,,,,1.13,0.63,0.94,4*06
$GPGSV,3,1,09,05,45,046,38,11,18,115,22,13,61,077,45,15,76,188,30,1*6D
$GPGSV,3,2,09,18,36,315,34,23,24,270,26,29,57,227,32,44,33,233,30,1*68
$GPGSV,3,3,09,46,24,244,33,1*5B
$GPGSV,2,1,06,05,45,046,19,11,18,115,19,15,76,188,17,18,36,315,18,6*6C
$GPGSV,2,2,06,23,24,270,25,29,57,227,24,6*68
$GPGSV,1,1,03,18,36,315,23,23,24,270,27,24,09,165,13,8*5C
$GPGSV,1,1,04,20,69,075,,21,19,062,,30,08,050,,48,27,241,,0*61
$GAGSV,3,1,09,04,34,192,20,06,11,203,20,10,47,322,31,11,21,308,10,1*7A
$GAGSV,3,2,09,12,66,354,24,16,10,252,24,19,67,103,24,29,30,046,14,1*7D
$GAGSV,3,3,09,33,41,097,28,1*4D
$GAGSV,3,1,10,04,34,192,27,06,11,203,27,10,47,322,33,11,21,308,23,7*76
$GAGSV,3,2,10,12,66,354,27,16,10,252,24,19,67,103,33,25,07,297,27,7*70
$GAGSV,3,3,10,29,30,046,22,33,41,097,36,7*76
$GAGSV,1,1,01,31,00,203,,0*46
$GBGSV,2,1,08,19,45,239,26,20,78,003,30,29,80,246,27,30,37,150,27,3*77
$GBGSV,2,2,08,32,23,045,27,35,26,315,32,47,67,160,23,48,74,262,25,3*76
$GBGSV,2,1,08,19,45,239,21,20,78,003,26,29,80,246,20,30,37,150,25,5*74
$GBGSV,2,2,08,32,23,045,19,35,26,315,18,47,67,160,24,48,74,262,31,5*77
$GBGSV,2,1,07,19,45,239,26,20,78,003,21,29,80,246,16,30,37,150,17,8*72
$GBGSV,2,2,07,35,26,315,18,47,67,160,21,48,74,262,29,8*40
$GNGLL,3509.37200,N,07925.36313,W,032100.00,A,A*61
$GNRMC,032101.00,A,3509.37199,N,07925.36315,W,0.037,,060226,,,A,V*02
$GNVTG,,T,,M,0.037,N,0.069,K,A*36
$GNGGA,032101.00,3509.37199,N,07925.36315,W,1,12,0.66,141.3,M,-33.6,M,,*7F
$GNGSA,M,3,05,13,15,18,23,29,,,,,,,1.16,0.66,0.96,1*04
$GNGSA,M,3,04,06,10,12,16,19,29,33,,,,,1.16,0.66,0.96,3*02
$GNGSA,M,3,19,20,29,30,32,35,,,,,,,1.16,0.66,0.96,4*04
$GPGSV,3,1,09,05,45,046,38,11,18,115,22,13,61,077,45,15,76,188,30,1*6D
$GPGSV,3,2,09,18,36,315,35,23,24,270,26,29,57,227,32,44,33,233,31,1*68
$GPGSV,3,3,09,46,24,244,33,1*5B
$GPGSV,1,1,01,21,19,062,15,5*5A
$GPGSV,2,1,06,05,45,046,19,11,18,115,19,15,76,188,17,18,36,315,19,6*6D
$GPGSV,2,2,06,23,24,270,25,29,57,227,24,6*68
$GPGSV,1,1,03,18,36,315,22,23,24,270,27,24,09,165,13,8*5D
$GPGSV,1,1,03,20,69,075,,30,08,050,,48,27,241,,0*59
$GAGSV,3,1,09,04,34,192,19,06,11,203,20,10,47,322,31,11,21,308,10,1*70
$GAGSV,3,2,09,12,66,354,23,16,10,252,24,19,67,103,25,29,30,046,14,1*7B
$GAGSV,3,3,09,33,41,097,28,1*4D
$GAGSV,3,1,10,04,34,192,27,06,11,203,27,10,47,322,32,11,21,308,23,7*77
$GAGSV,3,2,10,12,66,354,27,16,10,252,24,19,67,103,33,25,07,297,27,7*70
$GAGSV,3,3,10,29,30,046,22,33,41,097,36,7*76
$GAGSV,1,1,01,31,00,203,,0*46
$GBGSV,2,1,08,19,45,239,26,20,78,003,30,29,80,246,27,30,37,150,27,3*77
$GBGSV,2,2,08,32,23,045,27,35,26,315,32,47,67,160,22,48,74,262,25,3*77
$GBGSV,2,1,08,19,45,239,21,20,78,003,26,29,80,246,21,30,37,150,25,5*75
$GBGSV,2,2,08,32,23,045,19,35,26,315,18,47,67,160,24,48,74,262,31,5*77
$GBGSV,2,1,07,19,45,239,26,20,78,003,21,29,80,246,16,30,37,150,16,8*73
$GBGSV,2,2,07,35,26,315,18,47,67,160,22,48,74,262,29,8*43
$GNGLL,3509.37199,N,07925.36315,W,032101.00,A,A*65
$GNRMC,032102.00,A,3509.37198,N,07925.36318,W,0.031,,060226,,,A,V*0B
$GNVTG,,T,,M,0.031,N,0.057,K,A*3D
$GNGGA,032102.00,3509.37198,N,07925.36318,W,1,12,0.66,141.4,M,-33.6,M,,*77
$GNGSA,M,3,05,13,15,18,23,29,,,,,,,1.16,0.66,0.96,1*04
$GNGSA,M,3,04,06,10,12,16,19,29,33,,,,,1.16,0.66,0.96,3*02
$GNGSA,M,3,19,20,29,30,32,35,,,,,,,1.16,0.66,0.96,4*04
$GPGSV,3,1,09,05,45,046,38,11,18,115,21,13,61,077,44,15,76,188,30,1*6F
$GPGSV,3,2,09,18,36,315,35,23,24,270,26,29,57,227,32,44,33,233,30,1*69
$GPGSV,3,3,09,46,24,244,33,1*5B
$GPGSV,2,1,07,05,45,046,19,11,18,115,19,15,76,188,18,18,36,315,19,6*63
$GPGSV,2,2,07,21,19,062,14,23,24,270,25,29,57,227,23,6*54
$GPGSV,1,1,03,18,36,315,22,23,24,270,27,24,09,165,13,8*5D
$GPGSV,1,1,03,20,69,075,,30,08,050,,48,27,241,,0*59
$GAGSV,2,1,08,04,34,192,19,06,11,203,20,10,47,322,31,12,66,354,23,1*79
$GAGSV,2,2,08,16,10,252,24,19,67,103,25,29,30,046,14,33,41,097,28,1*7A
$GAGSV,3,1,10,04,34,192,26,06,11,203,26,10,47,322,33,11,21,308,23,7*76
$GAGSV,3,2,10,12,66,354,27,16,10,252,24,19,67,103,33,25,07,297,27,7*70
$GAGSV,3,3,10,29,30,046,23,33,41,097,35,7*74
$GAGSV,1,1,01,31,00,203,,0*46
$GBGSV,2,1,08,19,45,239,26,20,78,003,29,29,80,246,27,30,37,150,27,3*7F
$GBGSV,2,2,08,32,23,045,27,35,26,315,32,47,67,160,22,48,74,262,24,3*76
$GBGSV,2,1,08,19,45,239,22,20,78,003,26,29,80,246,21,30,37,150,25,5*76
$GBGSV,2,2,08,32,23,045,19,35,26,315,17,47,67,160,24,48,74,262,32,5*7B
$GBGSV,2,1,07,19,45,239,26,20,78,003,21,29,80,246,15,30,37,150,16,8*70
$GBGSV,2,2,07,35,26,315,18,47,67,160,21,48,74,262,29,8*40
$GNGLL,3509.37198,N,07925.36318,W,032102.00,A,A*6A
$GNRMC,032103.00,A,3509.37197,N,07925.36321,W,0.017,,060226,,,A,V*0B
$GNVTG,,T,,M,0.017,N,0.031,K,A*39
$GNGGA,032103.00,3509.37197,N,07925.36321,W,1,12,0.66,141.5,M,-33.6,M,,*72
$GNGSA,M,3,05,13,15,18,23,29,,,,,,,1.16,0.66,0.96,1*04
$GNGSA,M,3,04,06,10,12,16,19,29,33,,,,,1.16,0.66,0.96,3*02
$GNGSA,M,3,19,20,29,30,32,35,,,,,,,1.16,0.66,0.96,4*04
$GPGSV,3,1,09,05,45,046,39,11,18,115,21,13,61,077,44,15,76,188,31,1*6F
$GPGSV,3,2,09,18,36,315,34,23,24,270,26,29,57,227,32,44,33,233,31,1*69
$GPGSV,3,3,09,46,24,244,32,1*5A
$GPGSV,2,1,07,05,45,046,18,11,18,115,18,15,76,188,18,18,36,315,19,6*63
$GPGSV,2,2,07,21,19,062,15,23,24,270,25,29,57,227,23,6*55
$GPGSV,1,1,03,18,36,315,22,23,24,270,27,24,09,165,13,8*5D
$GPGSV,1,1,03,20,69,075,,30,08,050,,48,27,241,,0*59
$GAGSV,2,1,08,04,34,192,19,06,11,203,20,10,47,322,31,12,66,354,23,1*79
$GAGSV,2,2,08,16,10,252,23,19,67,103,25,29,30,046,13,33,41,097,29,1*7B
$GAGSV,3,1,10,04,34,192,26,06,11,203,26,10,47,322,33,11,21,308,23,7*76
$GAGSV,3,2,10,12,66,354,27,16,10,252,23,19,67,103,33,25,07,297,27,7*77
$GAGSV,3,3,10,29,30,046,23,33,41,097,36,7*77
$GAGSV,1,1,01,31,00,203,,0*46
$GBGSV,2,1,08,19,45,239,27,20,78,003,30,29,80,246,27,30,37,150,28,3*79
$GBGSV,2,2,08,32,23,045,28,35,26,315,32,47,67,160,23,48,74,262,24,3*78
$GBGSV,2,1,08,19,45,239,22,20,78,003,25,29,80,246,21,30,37,150,25,5*75
$GBGSV,2,2,08,32,23,045,18,35,26,315,17,47,67,160,24,48,74,262,31,5*79
$GBGSV,2,1,07,19,45,239,26,20,78,003,21,29,80,246,14,30,37,150,15,8*72
$GBGSV,2,2,07,35,26,315,19,47,67,160,21,48,74,262,29,8*41
$GNGLL,3509.37197,N,07925.36321,W,032103.00,A,A*6E
$GNRMC,032104.00,A,3509.37197,N,07925.36325,W,0.023,,060226,,,A,V*0F
$GNVTG,,T,,M,0.023,N,0.043,K,A*3B
$GNGGA,032104.00,3509.37197,N,07925.36325,W,1,12,0.66,141.6,M,-33.6,M,,*72
$GNGSA,M,3,05,13,15,18,23,29,,,,,,,1.16,0.66,0.96,1*04
$GNGSA,M,3,04,06,10,12,16,19,29,33,,,,,1.16,0.66,0.96,3*02
$GNGSA,M,3,19,20,29,30,32,35,,,,,,,1.16,0.66,0.96,4*04
$GPGSV,3,1,09,05,45,046,39,11,18,115,21,13,61,077,45,15,76,188,31,1*6E
$GPGSV,3,2,09,18,36,315,34,23,24,270,26,29,57,227,32,44,33,233,31,1*69
$GPGSV,3,3,09,46,24,244,32,1*5A
$GPGSV,2,1,07,05,45,046,19,11,18,115,17,15,76,188,17,18,36,315,20,6*68
$GPGSV,2,2,07,21,19,062,15,23,24,270,25,29,57,227,24,6*52
$GPGSV,1,1,03,18,36,315,22,23,24,270,27,24,09,165,13,8*5D
$GPGSV,1,1,03,20,69,075,,30,08,050,,48,27,241,,0*59
$GAGSV,2,1,08,04,34,192,19,06,11,203,20,10,47,322,31,12,66,354,23,1*79
$GAGSV,2,2,08,16,10,252,23,19,67,103,25,29,30,046,12,33,41,097,29,1*7A
$GAGSV,3,1,10,04,34,192,26,06,11,203,26,10,47,322,33,11,21,308,24,7*71
$GAGSV,3,2,10,12,66,354,27,16,10,252,23,19,67,103,33,25,07,297,27,7*77
$GAGSV,3,3,10,29,30,046,22,33,41,097,36,7*76
$GAGSV,1,1,01,31,00,203,,0*46
$GBGSV,2,1,08,19,45,239,27,20,78,003,29,29,80,246,26,30,37,150,28,3*70
$GBGSV,2,2,08,32,23,045,27,35,26,315,32,47,67,160,23,48,74,262,25,3*76
$GBGSV,2,1,08,19,45,239,21,20,78,003,26,29,80,246,21,30,37,150,24,5*74
$GBGSV,2,2,08,32,23,045,19,35,26,315,18,47,67,160,24,48,74,262,31,5*77
$GBGSV,2,1,07,19,45,239,26,20,78,003,21,29,80,246,15,30,37,150,15,8*73
$GBGSV,2,2,07,35,26,315,18,47,67,160,21,48,74,262,29,8*40
$GNGLL,3509.37197,N,07925.36325,W,032104.00,A,A*6D
$GNRMC,032105.00,A,3509.37197,N,07925.36328,W,0.035,,060226,,,A,V*04
$GNVTG,,T,,M,0.035,N,0.065,K,A*38
$GNGGA,032105.00,3509.37197,N,07925.36328,W,1,12,0.63,141.7,M,-33.6,M,,*7A
$GNGSA,M,3,05,13,15,18,21,23,29,,,,,,1.09,0.63,0.89,1*02
$GNGSA,M,3,04,06,10,12,16,19,29,33,,,,,1.09,0.63,0.89,3*07
$GNGSA,M,3,19,20,29,30,32,35,,,,,,,1.09,0.63,0.89,4*01
$GPGSV,3,1,10,05,45,046,39,11,18,115,20,13,61,077,45,15,76,188,31,1*67
$GPGSV,3,2,10,18,36,315,34,21,19,062,23,23,24,270,26,29,57,227,32,1*6F
$GPGSV,3,3,10,44,33,233,31,46,24,244,32,1*62
$GPGSV,2,1,07,05,45,046,19,11,18,115,16,15,76,188,17,18,36,315,21,6*68
$GPGSV,2,2,07,21,19,062,16,23,24,270,25,29,57,227,24,6*51
$GPGSV,1,1,03,18,36,315,22,23,24,270,27,24,09,165,14,8*5A
$GPGSV,1,1,03,20,69,075,,30,08,050,,48,27,241,,0*59
$GAGSV,3,1,09,04,34,192,19,06,11,203,20,10,47,322,31,11,21,308,17,1*77
$GAGSV,3,2,09,12,66,354,23,16,10,252,23,19,67,103,25,29,30,046,12,1*7A
$GAGSV,3,3,09,33,41,097,29,1*4C
$GAGSV,3,1,10,04,34,192,26,06,11,203,26,10,47,322,33,11,21,308,24,7*71
$GAGSV,3,2,10,12,66,354,27,16,10,252,22,19,67,103,32,25,07,297,27,7*77
$GAGSV,3,3,10,29,30,046,22,33,41,097,36,7*76
$GAGSV,1,1,01,31,00,203,,0*46
$GBGSV,2,1,08,19,45,239,28,20,78,003,29,29,80,246,27,30,37,150,28,3*7E
$GBGSV,2,2,08,32,23,045,27,35,26,315,32,47,67,160,24,48,74,262,25,3*71
$GBGSV,2,1,08,19,45,239,22,20,78,003,26,29,80,246,21,30,37,150,24,5*77
$GBGSV,2,2,08,32,23,045,19,35,26,315,17,47,67,160,24,48,74,262,31,5*78
$GBGSV,2,1,07,19,45,239,26,20,78,003,22,29,80,246,16,30,37,150,15,8*73
$GBGSV,2,2,07,35,26,315,19,47,67,160,22,48,74,262,29,8*42
$GNGLL,3509.37197,N,07925.36328,W,032105.00,A,A*61
$GNRMC,032106.00,A,3509.37195,N,07925.36331,W,0.037,,060226,,,A,V*0F
$GNVTG,,T,,M,0.037,N,0.068,K,A*37
$GNGGA,032106.00,3509.37195,N,07925.36331,W,1,12,0.63,141.8,M,-33.6,M,,*7C
$GNGSA,M,3,05,13,15,18,21,23,29,,,,,,1.09,0.63,0.89,1*02
$GNGSA,M,3,04,06,10,12,16,19,29,33,,,,,1.09,0.63,0.89,3*07
$GNGSA,M,3,19,20,29,30,32,35,,,,,,,1.09,0.63,0.89,4*01
$GPGSV,3,1,10,05,45,046,39,11,18,115,20,13,61,077,45,15,76,188,31,1*67
$GPGSV,3,2,10,18,36,315,34,21,19,062,24,23,24,270,26,29,57,227,32,1*68
$GPGSV,3,3,10,44,33,233,32,46,24,244,32,1*61
$GPGSV,2,1,07,05,45,046,19,11,18,115,15,15,76,188,18,18,36,315,21,6*64
$GPGSV,2,2,07,21,19,062,17,23,24,270,25,29,57,227,23,6*57
$GPGSV,1,1,03,18,36,315,23,23,24,270,27,24,09,165,15,8*5A
$GPGSV,1,1,03,20,69,075,,30,08,050,,48,27,241,,0*59
$GAGSV,3,1,09,04,34,192,19,06,11,203,20,10,47,322,31,11,21,308,16,1*76
$GAGSV,3,2,09,12,66,354,23,16,10,252,23,19,67,103,25,29,30,046,13,1*7B
$GAGSV,3,3,09,33,41,097,29,1*4C
$GAGSV,3,1,10,04,34,192,26,06,11,203,26,10,47,322,33,11,21,308,24,7*71
$GAGSV,3,2,10,12,66,354,27,16,10,252,22,19,67,103,32,25,07,297,26,7*76
$GAGSV,3,3,10,29,30,046,22,33,41,097,36,7*76
$GAGSV,1,1,01,31,00,203,,0*46
$GBGSV,2,1,08,19,45,239,29,20,78,003,29,29,80,246,27,30,37,150,28,3*7F
$GBGSV,2,2,08,32,23,045,27,35,26,315,32,47,67,160,24,48,74,262,25,3*71
$GBGSV,2,1,08,19,45,239,22,20,78,003,26,29,80,246,20,30,37,150,24,5*76
$GBGSV,2,2,08,32,23,045,19,35,26,315,17,47,67,160,23,48,74,262,31,5*7F
$GBGSV,2,1,07,19,45,239,26,20,78,003,22,29,80,246,17,30,37,150,16,8*71
$GBGSV,2,2,07,35,26,315,19,47,67,160,21,48,74,262,29,8*41
$GNGLL,3509.37195,N,07925.36331,W,032106.00,A,A*68
$GNRMC,032107.00,A,3509.37194,N,07925.36334,W,0.006,,060226,,,A,V*08
$GNVTG,,T,,M,0.006,N,0.010,K,A*3A
$GNGGA,032107.00,3509.37194,N,07925.36334,W,1,12,0.60,141.9,M,-33.6,M,,*7B
$GNGSA,M,3,05,11,13,15,18,21,23,29,,,,,1.03,0.60,0.84,1*06
$GNGSA,M,3,04,06,10,12,16,19,29,33,,,,,1.03,0.60,0.84,3*03
$GNGSA,M,3,19,20,29,30,32,35,,,,,,,1.03,0.60,0.84,4*05
$GPGSV,3,1,10,05,45,046,39,11,18,115,19,13,61,077,45,15,76,188,31,1*6D
$GPGSV,3,2,10,18,36,315,35,21,19,062,25,23,24,270,26,29,57,227,32,1*68
