$GNRMC,032030.00,A,3509.37112,N,07925.36722,W,0.013,,060226,,,A,V*04
$GNVTG,,T,,M,0.013,N,0.024,K,A*39
$GNGGA,032030.00,3509.37112,N,07925.36722,W,1,12,0.61,146.4,M,-33.6,M,,*78
$GNGSA,M,3,05,11,13,15,18,21,23,29,,,,,1.07,0.61,0.88,1*0F
$GNGSA,M,3,82,69,83,81,67,68,,,,,,,1.07,0.61,0.88,2*07
$GNGSA,M,3,04,19,11,12,16,10,33,29,,,,,1.07,0.61,0.88,3*0C
$GNGSA,M,3,19,20,29,30,35,,,,,,,,1.07,0.61,0.88,4*0D
$GNGSA,M,3,,,,,,,,,,,,,1.07,0.61,0.88,5*08
$GPGSV,3,1,10,05,45,046,39,11,18,115,22,13,61,077,46,15,76,188,21,1*67
$GPGSV,3,2,10,18,36,315,31,21,19,062,29,23,24,270,26,29,57,227,35,1*67
$GPGSV,3,3,10,44,33,233,31,46,24,244,32,1*62
$GPGSV,2,1,05,05,45,046,18,15,76,188,16,18,36,315,17,23,24,270,28,6*6C
$GPGSV,2,2,05,29,57,227,25,6*5F
$GPGSV,1,1,04,20,69,075,,24,09,165,,30,08,050,,48,27,241,,0*63
$GLGSV,2,1,06,67,58,022,20,68,64,236,30,69,15,220,32,81,23,136,13,1*7F
$GLGSV,2,2,06,82,69,109,30,83,48,334,21,1*70
$GLGSV,2,1,05,67,58,022,17,68,64,236,20,69,15,220,28,82,69,109,32,3*72
$GLGSV,2,2,05,83,48,334,19,3*44
$GLGSV,1,1,01,66,03,034,,0*4C
$GAGSV,3,1,09,04,34,192,30,10,47,322,29,11,21,308,25,12,66,354,26,2*77
$GAGSV,3,2,09,16,10,252,22,19,67,104,27,25,07,297,22,29,30,046,29,2*79
$GAGSV,3,3,09,33,41,097,32,2*45
$GAGSV,3,1,10,04,34,192,25,06,11,203,28,10,47,322,31,11,21,308,11,7*78
$GAGSV,3,2,10,12,66,354,27,16,10,252,26,19,67,104,35,25,07,297,27,7*73
$GAGSV,3,3,10,29,30,046,25,33,41,097,36,7*71
$GAGSV,1,1,01,31,00,203,,0*46
$GBGSV,2,1,07,19,45,239,27,20,78,003,31,29,80,247,32,30,38,150,27,1*70
$GBGSV,2,2,07,35,26,315,32,47,68,160,25,48,74,260,23,1*42
$GBGSV,1,1,01,32,23,045,,0*47
$GQGSV,1,1,00,0*64
$GNGLL,3509.37112,N,07925.36722,W,032030.00,A,A*65
$GNRMC,032031.00,A,3509.37112,N,07925.36725,W,0.019,,060226,,,A,V*08
$GNVTG,,T,,M,0.019,N,0.035,K,A*33
$GNGGA,032031.00,3509.37112,N,07925.36725,W,1,12,0.61,146.5,M,-33.6,M,,*7F
$GNGSA,M,3,05,11,13,15,18,21,23,29,,,,,1.07,0.61,0.88,1*0F
$GNGSA,M,3,82,69,83,81,67,68,,,,,,,1.07,0.61,0.88,2*07
$GNGSA,M,3,04,19,11,12,16,10,33,29,,,,,1.07,0.61,0.88,3*0C
$GNGSA,M,3,19,20,29,30,35,,,,,,,,1.07,0.61,0.88,4*0D
$GNGSA,M,3,,,,,,,,,,,,,1.07,0.61,0.88,5*08
$GPGSV,3,1,10,05,45,046,39,11,18,115,23,13,61,077,45,15,76,188,21,1*65
$GPGSV,3,2,10,18,36,315,32,21,19,062,29,23,24,270,25,29,57,227,34,1*66
$GPGSV,3,3,10,44,33,233,31,46,24,244,32,1*62
$GPGSV,2,1,05,05,45,046,19,15,76,188,16,18,36,315,17,23,24,270,28,6*6D
$GPGSV,2,2,05,29,57,227,25,6*5F
$GPGSV,1,1,04,20,69,075,,24,09,165,,30,08,050,,48,27,241,,0*63
$GLGSV,2,1,06,67,58,022,19,68,64,236,31,69,16,220,32,81,23,136,14,1*70
$GLGSV,2,2,06,82,69,109,30,83,48,334,20,1*71
$GLGSV,2,1,05,67,58,022,17,68,64,236,20,69,16,220,29,82,69,109,32,3*70
$GLGSV,2,2,05,83,48,334,20,3*4E
$GLGSV,1,1,01,66,03,034,,0*4C
$GAGSV,3,1,09,04,34,192,30,10,47,322,30,11,21,308,25,12,66,354,26,2*7F
$GAGSV,3,2,09,16,10,252,22,19,67,104,27,25,07,297,22,29,30,046,29,2*79
$GAGSV,3,3,09,33,41,097,32,2*45
$GAGSV,3,1,10,04,34,192,25,06,11,203,28,10,47,322,31,11,21,308,11,7*78
$GAGSV,3,2,10,12,66,354,27,16,10,252,25,19,67,104,35,25,07,297,27,7*70
$GAGSV,3,3,10,29,30,046,25,33,41,097,36,7*71
$GAGSV,1,1,01,31,00,203,,0*46
$GBGSV,2,1,07,19,45,239,27,20,78,003,31,29,80,247,32,30,38,150,28,1*7F
$GBGSV,2,2,07,35,26,315,31,47,68,160,24,48,74,260,22,1*41
$GBGSV,1,1,01,32,23,045,,0*47
$GQGSV,1,1,00,0*64
$GNGLL,3509.37112,N,07925.36725,W,032031.00,A,A*63
$GNRMC,032032.00,A,3509.37111,N,07925.36724,W,0.004,,060226,,,A,V*05
$GNVTG,,T,,M,0.004,N,0.008,K,A*31
$GNGGA,032032.00,3509.37111,N,07925.36724,W,1,12,0.66,146.5,M,-33.6,M,,*79
$GNGSA,M,3,05,11,13,15,18,21,23,29,,,,,1.20,0.66,1.01,1*0D
$GNGSA,M,3,82,69,83,81,67,68,,,,,,,1.20,0.66,1.01,2*05
$GNGSA,M,3,04,19,11,12,16,10,33,29,,,,,1.20,0.66,1.01,3*0E
$GNGSA,M,3,19,20,29,30,35,,,,,,,,1.20,0.66,1.01,4*0F
$GNGSA,M,3,,,,,,,,,,,,,1.20,0.66,1.01,5*0A
$GPGSV,3,1,10,05,45,046,39,11,18,115,23,13,61,077,45,15,76,188,22,1*66
$GPGSV,3,2,10,18,36,315,31,21,19,062,29,23,24,270,26,29,57,227,35,1*67
$GPGSV,3,3,10,44,33,233,31,46,24,244,32,1*62
$GPGSV,2,1,05,05,45,046,19,15,76,188,16,18,36,315,16,23,24,270,27,6*63
$GPGSV,2,2,05,29,57,227,24,6*5E
$GPGSV,1,1,04,20,69,075,,24,09,165,,30,08,050,,48,27,241,,0*63
$GLGSV,2,1,06,67,58,022,19,68,64,236,31,69,16,220,32,81,23,136,15,1*71
$GLGSV,2,2,06,82,69,109,29,83,48,334,20,1*79
$GLGSV,2,1,05,67,58,022,18,68,64,236,21,69,16,220,29,82,69,109,32,3*7E
$GLGSV,2,2,05,83,48,334,20,3*4E
$GLGSV,1,1,01,66,03,034,,0*4C
$GAGSV,3,1,09,04,34,192,30,10,47,322,30,11,21,308,25,12,66,354,26,2*7F
$GAGSV,3,2,09,16,10,252,23,19,67,104,27,25,07,297,22,29,30,046,29,2*78
$GAGSV,3,3,09,33,41,097,32,2*45
$GAGSV,3,1,10,04,34,192,25,06,11,203,28,10,47,322,31,11,21,308,10,7*79
$GAGSV,3,2,10,12,66,354,27,16,10,252,25,19,67,104,34,25,07,297,27,7*71
$GAGSV,3,3,10,29,30,046,25,33,41,097,36,7*71
$GAGSV,1,1,01,31,00,203,,0*46
$GBGSV,2,1,07,19,45,239,27,20,78,003,31,29,80,247,32,30,38,150,28,1*7F
$GBGSV,2,2,07,35,26,315,31,47,68,160,24,48,74,260,21,1*42
$GBGSV,1,1,01,32,23,045,,0*47
$GQGSV,1,1,00,0*64
$GNGLL,3509.37111,N,07925.36724,W,032032.00,A,A*62
$GNRMC,032033.00,A,3509.37110,N,07925.36725,W,0.017,,060226,,,A,V*06
$GNVTG,,T,,M,0.017,N,0.031,K,A*39
$GNGGA,032033.00,3509.37110,N,07925.36725,W,1,12,0.61,146.6,M,-33.6,M,,*7C
$GNGSA,M,3,05,11,13,15,18,21,23,29,,,,,1.07,0.61,0.88,1*0F
$GNGSA,M,3,82,69,83,81,67,68,,,,,,,1.07,0.61,0.88,2*07
$GNGSA,M,3,04,19,11,12,16,10,33,29,,,,,1.07,0.61,0.88,3*0C
$GNGSA,M,3,19,20,29,30,35,,,,,,,,1.07,0.61,0.88,4*0D
$GNGSA,M,3,,,,,,,,,,,,,1.07,0.61,0.88,5*08
$GPGSV,3,1,10,05,45,046,39,11,18,115,23,13,61,077,45,15,76,188,21,1*65
$GPGSV,3,2,10,18,36,315,31,21,19,062,29,23,24,270,26,29,57,227,34,1*66
$GPGSV,3,3,10,44,33,233,31,46,24,244,32,1*62
$GPGSV,2,1,05,05,45,046,19,15,76,188,16,18,36,315,17,23,24,270,27,6*62
$GPGSV,2,2,05,29,57,227,24,6*5E
$GPGSV,1,1,04,20,69,075,,24,09,165,,30,08,050,,48,27,241,,0*63
$GLGSV,2,1,06,67,58,022,18,68,64,236,31,69,16,220,32,81,23,136,16,1*73
$GLGSV,2,2,06,82,69,109,29,83,48,334,19,1*73
$GLGSV,2,1,06,67,58,022,18,68,64,236,21,69,16,220,29,81,23,136,18,3*74
$GLGSV,2,2,06,82,69,109,32,83,48,334,20,3*71
$GLGSV,1,1,01,66,03,034,,0*4C
$GAGSV,3,1,09,04,34,192,30,10,47,322,29,11,21,308,25,12,66,354,26,2*77
$GAGSV,3,2,09,16,10,252,23,19,67,104,27,25,07,297,22,29,30,046,28,2*79
$GAGSV,3,3,09,33,41,097,32,2*45
$GAGSV,3,1,10,04,34,192,26,06,11,203,28,10,47,322,31,11,21,308,11,7*7B
$GAGSV,3,2,10,12,66,354,27,16,10,252,25,19,67,104,34,25,07,297,27,7*71
$GAGSV,3,3,10,29,30,046,25,33,41,097,36,7*71
$GAGSV,1,1,01,31,00,203,,0*46
$GBGSV,2,1,07,19,45,239,28,20,78,003,31,29,80,247,32,30,38,150,28,1*70
$GBGSV,2,2,07,35,26,315,31,47,68,160,24,48,74,260,21,1*42
$GBGSV,1,1,01,32,23,045,,0*47
$GQGSV,1,1,00,0*64
$GNGLL,3509.37110,N,07925.36725,W,032033.00,A,A*63
$GNRMC,032034.00,A,3509.37108,N,07925.36726,W,0.023,,060226,,,A,V*0C
$GNVTG,,T,,M,0.023,N,0.042,K,A*3A
$GNGGA,032034.00,3509.37108,N,07925.36726,W,1,12,0.61,146.7,M,-33.6,M,,*70
$GNGSA,M,3,05,11,13,15,18,21,23,29,,,,,1.07,0.61,0.88,1*0F
$GNGSA,M,3,82,69,83,81,67,68,,,,,,,1.07,0.61,0.88,2*07
$GNGSA,M,3,04,19,11,12,16,10,33,29,,,,,1.07,0.61,0.88,3*0C
$GNGSA,M,3,19,20,29,30,35,,,,,,,,1.07,0.61,0.88,4*0D
$GNGSA,M,3,,,,,,,,,,,,,1.07,0.61,0.88,5*08
$GPGSV,3,1,10,05,45,046,39,11,18,115,23,13,61,077,45,15,76,188,21,1*65
$GPGSV,3,2,10,18,36,315,31,21,19,062,29,23,24,270,26,29,57,227,34,1*66
$GPGSV,3,3,10,44,33,233,31,46,24,244,32,1*62
$GPGSV,1,1,01,21,19,062,14,5*5B
$GPGSV,2,1,05,05,45,046,20,15,76,188,15,18,36,315,17,23,24,270,27,6*6B
$GPGSV,2,2,05,29,57,227,24,6*5E
$GPGSV,1,1,04,20,69,075,,24,09,165,,30,08,050,,48,27,241,,0*63
$GLGSV,2,1,06,67,58,022,19,68,64,236,31,69,16,220,31,81,23,136,16,1*71
$GLGSV,2,2,06,82,69,109,29,83,48,334,19,1*73
$GLGSV,2,1,06,67,58,022,18,68,64,236,21,69,16,220,29,81,23,136,17,3*7B
$GLGSV,2,2,06,82,69,109,32,83,48,334,19,3*7B
$GLGSV,1,1,01,66,03,034,,0*4C
$GAGSV,3,1,09,04,34,192,30,10,47,322,30,11,21,308,25,12,66,354,25,2*7C
$GAGSV,3,2,09,16,10,252,23,19,67,104,27,25,07,297,21,29,30,046,29,2*7B
$GAGSV,3,3,09,33,41,097,32,2*45
$GAGSV,3,1,10,04,34,192,26,06,11,203,28,10,47,322,31,11,21,308,13,7*79
$GAGSV,3,2,10,12,66,354,27,16,10,252,25,19,67,104,34,25,07,297,27,7*71
$GAGSV,3,3,10,29,30,046,25,33,41,097,36,7*71
$GAGSV,1,1,01,31,00,203,,0*46
$GBGSV,2,1,07,19,45,239,28,20,78,003,31,29,80,247,32,30,38,150,28,1*70
$GBGSV,2,2,07,35,26,315,31,47,68,160,24,48,74,260,21,1*42
$GBGSV,1,1,01,32,23,045,,0*47
$GQGSV,1,1,00,0*64
$GNGLL,3509.37108,N,07925.36726,W,032034.00,A,A*6E
$GNRMC,032035.00,A,3509.37108,N,07925.36724,W,0.045,,060226,,,A,V*0F
$GNVTG,,T,,M,0.045,N,0.083,K,A*37
$GNGGA,032035.00,3509.37108,N,07925.36724,W,1,12,0.66,146.6,M,-33.6,M,,*75
$GNGSA,M,3,05,11,13,15,18,21,23,29,,,,,1.20,0.66,1.01,1*0D
$GNGSA,M,3,82,69,83,81,67,68,,,,,,,1.20,0.66,1.01,2*05
$GNGSA,M,3,04,19,11,12,16,10,33,29,,,,,1.20,0.66,1.01,3*0E
$GNGSA,M,3,19,20,29,30,35,,,,,,,,1.20,0.66,1.01,4*0F
$GNGSA,M,3,,,,,,,,,,,,,1.20,0.66,1.01,5*0A
$GPGSV,3,1,10,05,45,046,39,11,18,115,23,13,61,077,45,15,76,188,21,1*65
$GPGSV,3,2,10,18,36,315,31,21,19,062,29,23,24,270,26,29,57,227,34,1*66
$GPGSV,3,3,10,44,33,233,31,46,24,244,33,1*63
$GPGSV,2,1,06,05,45,046,19,15,76,188,16,18,36,315,18,21,19,062,13,6*64
$GPGSV,2,2,06,23,24,270,27,29,57,227,24,6*6A
$GPGSV,1,1,04,20,69,075,,24,09,165,,30,08,050,,48,27,241,,0*63
$GLGSV,2,1,06,67,58,022,20,68,64,236,31,69,16,220,31,81,23,136,15,1*78
$GLGSV,2,2,06,82,69,109,29,83,48,334,20,1*79
$GLGSV,2,1,06,67,58,022,17,68,64,236,21,69,16,220,30,81,23,136,16,3*7D
$GLGSV,2,2,06,82,69,109,32,83,48,334,20,3*71
$GLGSV,1,1,01,66,03,034,,0*4C
$GAGSV,3,1,09,04,34,192,30,10,47,322,30,11,21,308,25,12,66,354,26,2*7F
$GAGSV,3,2,09,16,10,252,22,19,67,104,27,25,07,297,22,29,30,046,29,2*79
$GAGSV,3,3,09,33,41,097,32,2*45
$GAGSV,3,1,10,04,34,192,26,06,11,203,28,10,47,322,31,11,21,308,11,7*7B
$GAGSV,3,2,10,12,66,354,27,16,10,252,25,19,67,104,34,25,07,297,26,7*70
$GAGSV,3,3,10,29,30,046,25,33,41,097,36,7*71
$GAGSV,1,1,01,31,00,203,,0*46
$GBGSV,2,1,07,19,45,239,28,20,78,003,31,29,80,247,32,30,38,150,28,1*70
$GBGSV,2,2,07,35,26,315,31,47,68,160,24,48,74,260,21,1*42
$GBGSV,1,1,01,32,23,045,,0*47
$GQGSV,1,1,00,0*64
$GNGLL,3509.37108,N,07925.36724,W,032035.00,A,A*6D
$GNRMC,032036.00,A,3509.37108,N,07925.36723,W,0.027,,060226,,,A,V*0F
$GNVTG,,T,,M,0.027,N,0.049,K,A*35
$GNGGA,032036.00,3509.37108,N,07925.36723,W,1,12,0.61,146.6,M,-33.6,M,,*76
$GNGSA,M,3,05,11,13,15,18,21,23,29,,,,,1.07,0.61,0.88,1*0F
$GNGSA,M,3,82,69,83,81,67,68,,,,,,,1.07,0.61,0.88,2*07
$GNGSA,M,3,04,19,11,12,16,10,33,29,,,,,1.07,0.61,0.88,3*0C
$GNGSA,M,3,19,20,29,30,35,,,,,,,,1.07,0.61,0.88,4*0D
$GNGSA,M,3,,,,,,,,,,,,,1.07,0.61,0.88,5*08
$GPGSV,3,1,10,05,45,046,39,11,18,115,23,13,61,077,45,15,76,188,23,1*67
$GPGSV,3,2,10,18,36,315,31,21,19,062,29,23,24,270,26,29,57,227,34,1*66
$GPGSV,3,3,10,44,33,233,31,46,24,244,33,1*63
$GPGSV,2,1,06,05,45,046,20,15,76,188,16,18,36,315,18,21,19,062,15,6*68
$GPGSV,2,2,06,23,24,270,27,29,57,227,24,6*6A
$GPGSV,1,1,04,20,69,075,,24,09,165,,30,08,050,,48,27,241,,0*63
$GLGSV,2,1,06,67,58,022,21,68,64,236,32,69,16,220,30,81,23,136,14,1*7A
$GLGSV,2,2,06,82,69,109,29,83,48,334,21,1*78
$GLGSV,2,1,06,67,58,022,18,68,64,236,21,69,16,220,30,81,23,136,14,3*70
$GLGSV,2,2,06,82,69,109,32,83,48,334,21,3*70
$GLGSV,1,1,01,66,03,034,,0*4C
$GAGSV,3,1,09,04,34,192,30,10,47,322,30,11,21,308,25,12,66,354,26,2*7F
$GAGSV,3,2,09,16,10,252,22,19,67,104,27,25,07,297,22,29,30,046,29,2*79
$GAGSV,3,3,09,33,41,097,32,2*45
$GAGSV,3,1,10,04,34,192,26,06,11,203,28,10,47,322,32,11,21,308,14,7*7D
$GAGSV,3,2,10,12,66,354,27,16,10,252,25,19,67,104,34,25,07,297,26,7*70
$GAGSV,3,3,10,29,30,046,25,33,41,097,36,7*71
$GAGSV,1,1,01,31,00,203,,0*46
$GBGSV,2,1,07,19,45,239,28,20,78,003,30,29,80,247,33,30,38,150,28,1*70
$GBGSV,2,2,07,35,26,315,31,47,68,160,24,48,74,260,20,1*43
$GBGSV,1,1,01,32,23,045,,0*47
$GQGSV,1,1,00,0*64
$GNGLL,3509.37108,N,07925.36723,W,032036.00,A,A*69
$GNRMC,032037.00,A,3509.37108,N,07925.36724,W,0.032,,060226,,,A,V*0D
$GNVTG,,T,,M,0.032,N,0.060,K,A*3A
$GNGGA,032037.00,3509.37108,N,07925.36724,W,1,12,0.61,146.7,M,-33.6,M,,*71
$GNGSA,M,3,05,11,13,15,18,21,23,29,,,,,1.07,0.61,0.88,1*0F
$GNGSA,M,3,82,69,83,81,67,68,,,,,,,1.07,0.61,0.88,2*07
$GNGSA,M,3,04,19,11,12,16,10,33,29,,,,,1.07,0.61,0.88,3*0C
$GNGSA,M,3,19,20,29,30,35,,,,,,,,1.07,0.61,0.88,4*0D
$GNGSA,M,3,,,,,,,,,,,,,1.07,0.61,0.88,5*08
$GPGSV,3,1,10,05,45,046,39,11,18,115,23,13,61,077,45,15,76,188,23,1*67
$GPGSV,3,2,10,18,36,315,31,21,19,062,28,23,24,270,26,29,57,227,34,1*67
$GPGSV,3,3,10,44,33,233,31,46,24,244,33,1*63
$GPGSV,2,1,06,05,45,046,20,15,76,188,15,18,36,315,18,21,19,062,14,6*6A
$GPGSV,2,2,06,23,24,270,27,29,57,227,24,6*6A
$GPGSV,1,1,04,20,69,075,,24,09,165,,30,08,050,,48,27,241,,0*63
$GLGSV,2,1,07,66,03,034,13,67,58,022,21,68,64,236,32,69,16,220,30,1*74
$GLGSV,2,2,07,81,23,136,13,82,69,109,29,83,48,334,20,1*46
$GLGSV,2,1,06,67,58,022,17,68,64,236,21,69,16,220,30,81,23,136,14,3*7F
$GLGSV,2,2,06,82,69,109,32,83,48,334,21,3*70
$GAGSV,3,1,09,04,34,192,30,10,47,322,30,11,21,308,25,12,66,354,26,2*7F
$GAGSV,3,2,09,16,10,252,21,19,67,104,27,25,07,297,22,29,30,046,29,2*7A
$GAGSV,3,3,09,33,41,097,32,2*45
$GAGSV,3,1,10,04,34,192,26,06,11,203,28,10,47,322,32,11,21,308,14,7*7D
$GAGSV,3,2,10,12,66,354,27,16,10,252,25,19,67,104,34,25,07,297,26,7*70
$GAGSV,3,3,10,29,30,046,25,33,41,097,36,7*71
$GAGSV,1,1,01,31,00,203,,0*46
$GBGSV,2,1,07,19,45,239,29,20,78,003,30,29,80,247,33,30,38,150,28,1*71
$GBGSV,2,2,07,35,26,315,31,47,68,160,24,48,74,260,20,1*43
$GBGSV,1,1,01,32,23,045,,0*47
$GQGSV,1,1,00,0*64
$GNGLL,3509.37108,N,07925.36724,W,032037.00,A,A*6F
$GNRMC,032038.00,A,3509.37107,N,07925.36722,W,0.020,,060226,,,A,V*08
$GNVTG,,T,,M,0.020,N,0.037,K,A*3B
$GNGGA,032038.00,3509.37107,N,07925.36722,W,1,12,0.66,146.7,M,-33.6,M,,*70
$GNGSA,M,3,05,11,13,15,18,21,23,29,,,,,1.20,0.66,1.01,1*0D
$GNGSA,M,3,82,69,83,81,67,68,,,,,,,1.20,0.66,1.01,2*05
$GNGSA,M,3,04,19,11,12,16,10,33,29,,,,,1.20,0.66,1.01,3*0E
$GNGSA,M,3,19,20,29,30,35,,,,,,,,1.20,0.66,1.01,4*0F
$GNGSA,M,3,,,,,,,,,,,,,1.20,0.66,1.01,5*0A
$GPGSV,3,1,10,05,45,046,39,11,18,115,23,13,61,077,45,15,76,188,23,1*67
$GPGSV,3,2,10,18,36,315,31,21,19,062,28,23,24,270,25,29,57,227,34,1*64
$GPGSV,3,3,10,44,33,233,31,46,24,244,33,1*63
$GPGSV,2,1,06,05,45,046,20,15,76,188,16,18,36,315,18,21,19,062,15,6*68
$GPGSV,2,2,06,23,24,270,27,29,57,227,24,6*6A
$GPGSV,1,1,04,20,69,075,,24,09,165,,30,08,050,,48,27,241,,0*63
$GLGSV,2,1,07,66,03,034,12,67,58,022,21,68,64,236,32,69,16,220,30,1*75
$GLGSV,2,2,07,81,23,136,13,82,69,109,30,83,48,334,19,1*44
$GLGSV,2,1,05,67,58,022,17,68,64,236,21,69,16,220,30,82,69,109,32,3*79
$GLGSV,2,2,05,83,48,334,21,3*4F
$GAGSV,3,1,09,04,34,192,30,10,47,322,30,11,21,308,25,12,66,354,26,2*7F
$GAGSV,3,2,09,16,10,252,21,19,67,104,27,25,07,297,21,29,30,046,29,2*79
$GAGSV,3,3,09,33,41,097,32,2*45
$GAGSV,3,1,10,04,34,192,26,06,11,203,28,10,47,322,32,11,21,308,08,7*70
$GAGSV,3,2,10,12,66,354,27,16,10,252,24,19,67,104,34,25,07,297,27,7*70
$GAGSV,3,3,10,29,30,046,25,33,41,097,36,7*71
$GAGSV,1,1,01,31,00,203,,0*46
$GBGSV,2,1,07,19,45,239,29,20,78,003,30,29,80,246,33,30,38,150,28,1*70
$GBGSV,2,2,07,35,26,315,31,47,68,160,24,48,74,260,20,1*43
$GBGSV,1,1,01,32,23,045,,0*47
$GQGSV,1,1,00,0*64
$GNGLL,3509.37107,N,07925.36722,W,032038.00,A,A*69
$GNRMC,032039.00,A,3509.37107,N,07925.36723,W,0.030,,060226,,,A,V*09
$GNVTG,,T,,M,0.030,N,0.055,K,A*3E
$GNGGA,032039.00,3509.37107,N,07925.36723,W,1,12,0.61,146.7,M,-33.6,M,,*77
$GNGSA,M,3,05,11,13,15,18,21,23,29,,,,,1.07,0.61,0.88,1*0F
$GNGSA,M,3,82,69,83,81,67,68,,,,,,,1.07,0.61,0.88,2*07
$GNGSA,M,3,04,19,11,12,16,10,33,29,,,,,1.07,0.61,0.88,3*0C
$GNGSA,M,3,19,20,29,30,35,,,,,,,,1.07,0.61,0.88,4*0D
$GNGSA,M,3,,,,,,,,,,,,,1.07,0.61,0.88,5*08
$GPGSV,3,1,10,05,45,046,39,11,18,115,23,13,61,077,45,15,76,188,25,1*61
$GPGSV,3,2,10,18,36,315,31,21,19,062,28,23,24,270,25,29,57,227,34,1*64
$GPGSV,3,3,10,44,33,233,31,46,24,244,33,1*63
$GPGSV,2,1,06,05,45,046,20,15,76,188,14,18,36,315,17,21,19,062,15,6*65
$GPGSV,2,2,06,23,24,270,27,29,57,227,24,6*6A
$GPGSV,1,1,04,20,69,075,,24,09,165,,30,08,050,,48,27,241,,0*63
$GLGSV,2,1,07,66,03,034,11,67,58,022,21,68,64,236,32,69,16,220,30,1*76
$GLGSV,2,2,07,81,23,136,14,82,69,109,30,83,48,334,19,1*43
$GLGSV,2,1,05,67,58,022,17,68,64,236,20,69,16,220,31,82,69,109,32,3*79
$GLGSV,2,2,05,83,48,334,21,3*4F
$GAGSV,3,1,09,04,34,192,30,10,47,322,30,11,21,308,25,12,66,354,26,2*7F
$GAGSV,3,2,09,16,10,252,21,19,67,104,27,25,07,297,22,29,30,046,29,2*7A
$GAGSV,3,3,09,33,41,097,32,2*45
$GAGSV,3,1,10,04,34,192,26,06,11,203,28,10,47,322,32,11,21,308,11,7*78
$GAGSV,3,2,10,12,66,354,27,16,10,252,25,19,67,104,34,25,07,297,27,7*71
$GAGSV,3,3,10,29,30,046,25,33,41,097,36,7*71
$GAGSV,1,1,01,31,00,203,,0*46
$GBGSV,2,1,07,19,45,239,30,20,78,003,30,29,80,246,33,30,37,150,28,1*77
$GBGSV,2,2,07,35,26,315,32,47,68,160,24,48,74,260,19,1*4A
$GBGSV,1,1,01,32,23,045,,0*47
$GQGSV,1,1,00,0*64
$GNGLL,3509.37107,N,07925.36723,W,032039.00,A,A*69
$GNRMC,032040.00,A,3509.37107,N,07925.36723,W,0.037,,060226,,,A,V*00
$GNVTG,,T,,M,0.037,N,0.068,K,A*37
$GNGGA,032040.00,3509.37107,N,07925.36723,W,1,12,0.61,146.8,M,-33.6,M,,*76
$GNGSA,M,3,05,11,13,15,18,21,23,29,,,,,1.07,0.61,0.88,1*0F
$GNGSA,M,3,82,69,83,81,67,68,,,,,,,1.07,0.61,0.88,2*07
$GNGSA,M,3,04,19,11,12,16,10,33,29,,,,,1.07,0.61,0.88,3*0C
$GNGSA,M,3,19,20,29,30,35,,,,,,,,1.07,0.61,0.88,4*0D
$GNGSA,M,3,,,,,,,,,,,,,1.07,0.61,0.88,5*08
$GPGSV,3,1,10,05,45,046,39,11,18,115,24,13,61,077,45,15,76,188,26,1*65
$GPGSV,3,2,10,18,36,315,32,21,19,062,28,23,24,270,25,29,57,227,34,1*67
$GPGSV,3,3,10,44,33,233,31,46,24,244,33,1*63
$GPGSV,2,1,06,05,45,046,20,15,76,188,15,18,36,315,17,21,19,062,13,6*62
$GPGSV,2,2,06,23,24,270,27,29,57,227,23,6*6D
$GPGSV,1,1,04,20,69,075,,24,09,165,,30,08,050,,48,27,241,,0*63
$GLGSV,2,1,07,66,03,034,13,67,58,022,20,68,64,236,32,69,16,220,30,1*75
$GLGSV,2,2,07,81,23,136,14,82,69,109,30,83,48,334,19,1*43
$GLGSV,2,1,06,67,58,022,17,68,64,236,20,69,16,220,31,81,23,136,18,3*73
$GLGSV,2,2,06,82,69,109,32,83,48,334,21,3*70
$GAGSV,3,1,09,04,34,192,30,10,47,322,30,11,21,308,24,12,66,354,26,2*7E
$GAGSV,3,2,09,16,10,252,21,19,67,104,27,25,07,297,22,29,30,046,29,2*7A
$GAGSV,3,3,09,33,41,097,32,2*45
$GAGSV,3,1,10,04,34,192,27,06,11,203,28,10,47,322,32,11,21,308,13,7*7B
$GAGSV,3,2,10,12,66,354,27,16,10,252,24,19,67,104,34,25,07,297,27,7*70
$GAGSV,3,3,10,29,30,046,25,33,41,097,36,7*71
$GAGSV,1,1,01,31,00,203,,0*46
$GBGSV,2,1,07,19,45,239,30,20,78,003,30,29,80,246,32,30,37,150,28,1*76
$GBGSV,2,2,07,35,26,315,31,47,68,160,24,48,74,260,19,1*49
$GBGSV,1,1,01,32,23,045,,0*47
$GQGSV,1,1,00,0*64
$GNGLL,3509.37107,N,07925.36723,W,032040.00,A,A*67
$GNRMC,032041.00,A,3509.37106,N,07925.36722,W,0.035,,060226,,,A,V*03
$GNVTG,,T,,M,0.035,N,0.066,K,A*3B
$GNGGA,032041.00,3509.37106,N,07925.36722,W,1,12,0.66,146.7,M,-33.6,M,,*7F
$GNGSA,M,3,05,11,13,15,18,21,23,29,,,,,1.20,0.66,1.01,1*0D
$GNGSA,M,3,82,69,83,81,67,68,,,,,,,1.20,0.66,1.01,2*05
$GNGSA,M,3,04,19,11,12,16,10,33,29,,,,,1.20,0.66,1.01,3*0E
$GNGSA,M,3,19,20,29,30,35,,,,,,,,1.20,0.66,1.01,4*0F
$GNGSA,M,3,,,,,,,,,,,,,1.20,0.66,1.01,5*0A
$GPGSV,3,1,10,05,45,046,39,11,18,115,24,13,61,077,45,15,76,188,26,1*65
$GPGSV,3,2,10,18,36,315,32,21,19,062,27,23,24,270,25,29,57,227,34,1*68
$GPGSV,3,3,10,44,33,233,31,46,24,244,33,1*63
$GPGSV,2,1,05,05,45,046,20,15,76,188,16,18,36,315,17,23,24,270,27,6*68
$GPGSV,2,2,05,29,57,227,22,6*58
$GPGSV,1,1,04,20,69,075,,24,09,165,,30,08,050,,48,27,241,,0*63
$GLGSV,2,1,07,66,03,034,15,67,58,022,20,68,64,236,32,69,16,220,30,1*73
$GLGSV,2,2,07,81,23,136,14,82,69,109,30,83,48,334,20,1*49
$GLGSV,2,1,06,67,58,022,19,68,64,236,19,69,16,220,30,81,23,136,15,3*7B
$GLGSV,2,2,06,82,69,109,32,83,48,334,21,3*70
$GAGSV,3,1,09,04,34,192,30,10,47,322,30,11,21,308,25,12,66,354,26,2*7F
$GAGSV,3,2,09,16,10,252,22,19,67,104,27,25,07,297,22,29,30,046,29,2*79
$GAGSV,3,3,09,33,41,097,32,2*45
$GAGSV,3,1,10,04,34,192,27,06,11,203,28,10,47,322,32,11,21,308,14,7*7C
$GAGSV,3,2,10,12,66,354,27,16,10,252,25,19,67,104,34,25,07,297,27,7*71
$GAGSV,3,3,10,29,30,046,25,33,41,097,36,7*71
$GAGSV,1,1,01,31,00,203,,0*46
$GBGSV,2,1,07,19,45,239,30,20,78,003,30,29,80,246,32,30,37,150,28,1*76
$GBGSV,2,2,07,35,26,315,31,47,68,160,25,48,74,260,20,1*42
$GBGSV,1,1,01,32,23,045,,0*47
$GQGSV,1,1,00,0*64
$GNGLL,3509.37106,N,07925.36722,W,032041.00,A,A*66
$GNRMC,032042.00,A,3509.37106,N,07925.36723,W,0.027,,060226,,,A,V*02
$GNVTG,,T,,M,0.027,N,0.049,K,A*35
$GNGGA,032042.00,3509.37106,N,07925.36723,W,1,12,0.61,146.8,M,-33.6,M,,*75
$GNGSA,M,3,05,11,13,15,18,21,23,29,,,,,1.07,0.61,0.88,1*0F
$GNGSA,M,3,82,69,83,81,67,68,,,,,,,1.07,0.61,0.88,2*07
$GNGSA,M,3,04,19,11,12,16,10,33,29,,,,,1.07,0.61,0.88,3*0C
$GNGSA,M,3,19,20,29,30,35,,,,,,,,1.07,0.61,0.88,4*0D
$GNGSA,M,3,,,,,,,,,,,,,1.07,0.61,0.88,5*08
$GPGSV,3,1,10,05,45,046,39,11,18,115,24,13,61,077,45,15,76,188,26,1*65
$GPGSV,3,2,10,18,36,315,32,21,19,062,27,23,24,270,26,29,57,227,34,1*6B
$GPGSV,3,3,10,44,33,233,31,46,24,244,33,1*63
$GPGSV,2,1,05,05,45,046,21,15,76,188,16,18,36,315,15,23,24,270,27,6*6B
$GPGSV,2,2,05,29,57,227,22,6*58
$GPGSV,1,1,04,20,69,075,,24,09,165,,30,08,050,,48,27,241,,0*63
$GLGSV,2,1,07,66,03,034,15,67,58,022,20,68,64,236,32,69,16,220,30,1*73
$GLGSV,2,2,07,81,23,136,15,82,69,109,30,83,48,334,20,1*48
$GLGSV,2,1,06,67,58,022,18,68,64,236,19,69,16,220,31,81,23,136,12,3*7C
$GLGSV,2,2,06,82,69,109,32,83,48,334,20,3*71
$GAGSV,3,1,09,04,34,192,30,10,47,322,30,11,21,308,24,12,66,354,26,2*7E
$GAGSV,3,2,09,16,10,252,22,19,67,104,27,25,07,297,21,29,30,046,29,2*7A
$GAGSV,3,3,09,33,41,097,32,2*45
$GAGSV,3,1,10,04,34,192,27,06,11,203,28,10,47,322,32,11,21,308,14,7*7C
$GAGSV,3,2,10,12,66,354,27,16,10,252,25,19,67,104,34,25,07,297,27,7*71
$GAGSV,3,3,10,29,30,046,25,33,41,097,36,7*71
$GAGSV,1,1,01,31,00,203,,0*46
$GBGSV,2,1,07,19,45,239,30,20,78,003,30,29,80,246,32,30,37,150,29,1*77
$GBGSV,2,2,07,35,26,315,32,47,68,160,25,48,74,260,21,1*40
$GBGSV,1,1,01,32,23,045,,0*47
$GQGSV,1,1,00,0*64
$GNGLL,3509.37106,N,07925.36723,W,032042.00,A,A*64
$GNRMC,032043.00,A,3509.37105,N,07925.36724,W,0.022,,060226,,,A,V*02
$GNVTG,,T,,M,0.022,N,0.041,K,A*38
$GNGGA,032043.00,3509.37105,N,07925.36724,W,1,12,0.61,146.9,M,-33.6,M,,*71
$GNGSA,M,3,05,11,13,15,18,21,23,29,,,,,1.07,0.61,0.88,1*0F
$GNGSA,M,3,82,69,83,81,67,68,,,,,,,1.07,0.61,0.88,2*07
$GNGSA,M,3,04,19,11,12,16,10,33,29,,,,,1.07,0.61,0.88,3*0C
$GNGSA,M,3,19,20,29,30,35,,,,,,,,1.07,0.61,0.88,4*0D
$GNGSA,M,3,,,,,,,,,,,,,1.07,0.61,0.88,5*08
$GPGSV,3,1,10,05,45,046,39,11,18,115,24,13,61,077,45,15,76,188,27,1*64
$GPGSV,3,2,10,18,36,315,32,21,19,062,26,23,24,270,26,29,57,227,34,1*6A
$GPGSV,3,3,10,44,33,233,31,46,24,244,33,1*63
$GPGSV,2,1,05,05,45,046,21,15,76,188,16,18,36,315,15,23,24,270,27,6*6B
$GPGSV,2,2,05,29,57,227,21,6*5B
$GPGSV,1,1,04,20,69,075,,24,09,165,,30,08,050,,48,27,241,,0*63
$GLGSV,2,1,07,66,03,034,13,67,58,022,21,68,64,236,32,69,16,220,29,1*7C
$GLGSV,2,2,07,81,23,136,14,82,69,109,30,83,48,334,20,1*49
$GLGSV,2,1,06,67,58,022,18,68,64,236,19,69,16,220,31,81,23,136,13,3*7D
$GLGSV,2,2,06,82,69,109,32,83,48,334,20,3*71
$GAGSV,3,1,09,04,34,192,30,10,47,322,30,11,21,308,24,12,66,354,26,2*7E
$GAGSV,3,2,09,16,10,252,21,19,67,104,27,25,07,297,21,29,30,046,29,2*79
$GAGSV,3,3,09,33,41,097,32,2*45
$GAGSV,3,1,10,04,34,192,27,06,11,203,27,10,47,322,32,11,21,308,15,7*72
$GAGSV,3,2,10,12,66,354,28,16,10,252,25,19,67,104,34,25,07,297,28,7*71
$GAGSV,3,3,10,29,30,046,25,33,41,097,36,7*71
$GAGSV,1,1,01,31,00,203,,0*46
$GBGSV,2,1,07,19,45,239,31,20,78,003,30,29,80,246,32,30,37,150,29,1*76
$GBGSV,2,2,07,35,26,315,32,47,68,160,24,48,74,260,21,1*41
$GBGSV,1,1,01,32,23,045,,0*47
$GQGSV,1,1,00,0*64
$GNGLL,3509.37105,N,07925.36724,W,032043.00,A,A*61
$GNRMC,032044.00,A,3509.37105,N,07925.36724,W,0.017,,060226,,,A,V*03
$GNVTG,,T,,M,0.017,N,0.031,K,A*39
$GNGGA,032044.00,3509.37105,N,07925.36724,W,1,12,0.66,146.9,M,-33.6,M,,*71
$GNGSA,M,3,05,11,13,15,18,21,23,29,,,,,1.20,0.66,1.01,1*0D
$GNGSA,M,3,82,69,83,81,67,68,,,,,,,1.20,0.66,1.01,2*05
$GNGSA,M,3,04,19,11,12,16,10,33,29,,,,,1.20,0.66,1.01,3*0E
$GNGSA,M,3,19,20,29,30,35,,,,,,,,1.20,0.66,1.01,4*0F
$GNGSA,M,3,,,,,,,,,,,,,1.20,0.66,1.01,5*0A
$GPGSV,3,1,10,05,45,046,39,11,18,115,24,13,61,077,45,15,76,188,27,1*64
$GPGSV,3,2,10,18,36,315,32,21,19,062,26,23,24,270,25,29,57,227,34,1*69
$GPGSV,3,3,10,44,33,233,31,46,24,244,32,1*62
$GPGSV,2,1,05,05,45,046,21,15,76,188,17,18,36,315,16,23,24,270,27,6*69
$GPGSV,2,2,05,29,57,227,21,6*5B
$GPGSV,1,1,04,20,69,075,,24,09,165,,30,08,050,,48,27,241,,0*63
$GLGSV,2,1,07,66,03,034,13,67,58,022,21,68,64,236,32,69,16,220,29,1*7C
$GLGSV,2,2,07,81,23,136,11,82,69,109,29,83,48,334,20,1*44
$GLGSV,2,1,06,67,58,022,17,68,64,236,19,69,16,220,31,81,23,136,11,3*70
$GLGSV,2,2,06,82,69,109,32,83,48,334,21,3*70
$GAGSV,3,1,09,04,34,192,30,10,47,322,30,11,21,308,24,12,66,354,26,2*7E
$GAGSV,3,2,09,16,10,252,21,19,67,104,27,25,07,297,21,29,30,046,29,2*79
$GAGSV,3,3,09,33,41,097,32,2*45
$GAGSV,3,1,10,04,34,192,27,06,11,203,27,10,47,322,32,11,21,308,15,7*72
$GAGSV,3,2,10,12,66,354,27,16,10,252,25,19,67,104,34,25,07,297,28,7*7E
$GAGSV,3,3,10,29,30,046,25,33,41,097,36,7*71
$GAGSV,1,1,01,31,00,203,,0*46
$GBGSV,2,1,07,19,45,239,31,20,78,003,30,29,80,246,32,30,37,150,29,1*76
$GBGSV,2,2,07,35,26,315,32,47,68,160,25,48,74,260,20,1*41
$GBGSV,1,1,01,32,23,045,,0*47
$GQGSV,1,1,00,0*64
$GNGLL,3509.37105,N,07925.36724,W,032044.00,A,A*66
$GNRMC,032045.00,A,3509.37105,N,07925.36724,W,0.025,,060226,,,A,V*03
$GNVTG,,T,,M,0.025,N,0.046,K,A*38
$GNGGA,032045.00,3509.37105,N,07925.36724,W,1,12,0.61,147.0,M,-33.6,M,,*7F
$GNGSA,M,3,05,11,13,15,18,21,23,29,,,,,1.07,0.61,0.88,1*0F
$GNGSA,M,3,82,69,83,81,67,68,,,,,,,1.07,0.61,0.88,2*07
$GNGSA,M,3,04,19,11,12,16,10,33,29,,,,,1.07,0.61,0.88,3*0C
$GNGSA,M,3,19,20,29,30,35,,,,,,,,1.07,0.61,0.88,4*0D
$GNGSA,M,3,,,,,,,,,,,,,1.07,0.61,0.88,5*08
$GPGSV,3,1,11,05,45,046,39,11,18,115,25,13,61,077,45,15,76,188,27,1*64
$GPGSV,3,2,11,18,36,315,33,20,69,075,24,21,19,062,26,23,24,270,25,1*69
$GPGSV,3,3,11,29,57,227,34,44,33,233,31,46,24,244,33,1*5B
$GPGSV,2,1,05,05,45,046,21,15,76,188,16,18,36,315,15,23,24,270,27,6*6B
$GPGSV,2,2,05,29,57,227,21,6*5B
$GPGSV,1,1,03,24,09,165,,30,08,050,,48,27,241,,0*5B
$GLGSV,2,1,07,66,03,034,13,67,58,022,20,68,64,236,32,69,16,220,29,1*7D
$GLGSV,2,2,07,81,23,136,10,82,69,109,29,83,48,334,21,1*44
$GLGSV,2,1,06,67,58,022,17,68,64,236,19,69,16,220,31,81,23,136,10,3*71
$GLGSV,2,2,06,82,69,109,32,83,48,334,20,3*71
$GAGSV,3,1,09,04,34,192,30,10,47,322,30,11,21,308,24,12,66,354,26,2*7E
$GAGSV,3,2,09,16,10,252,20,19,67,104,27,25,07,297,21,29,30,046,29,2*78
$GAGSV,3,3,09,33,41,097,32,2*45
$GAGSV,3,1,10,04,34,192,27,06,11,203,28,10,47,322,32,11,21,308,15,7*7D
$GAGSV,3,2,10,12,66,354,28,16,10,252,25,19,67,104,34,25,07,297,28,7*71
$GAGSV,3,3,10,29,30,046,25,33,41,097,36,7*71
$GAGSV,1,1,01,31,00,203,,0*46
$GBGSV,2,1,07,19,45,239,31,20,78,003,30,29,80,246,32,30,37,150,29,1*76
$GBGSV,2,2,07,35,26,315,31,47,68,160,25,48,74,260,21,1*43
$GBGSV,1,1,01,32,23,045,,0*47
$GQGSV,1,1,00,0*64
$GNGLL,3509.37105,N,07925.36724,W,032045.00,A,A*67
$GNRMC,032046.00,A,3509.37104,N,07925.36725,W,0.009,,060226,,,A,V*0E
$GNVTG,,T,,M,0.009,N,0.017,K,A*32
$GNGGA,032046.00,3509.37104,N,07925.36725,W,1,12,0.61,147.0,M,-33.6,M,,*7C
$GNGSA,M,3,05,11,13,15,18,21,23,29,,,,,1.07,0.61,0.88,1*0F
$GNGSA,M,3,82,69,83,67,68,,,,,,,,1.07,0.61,0.88,2*0E
$GNGSA,M,3,04,19,11,12,16,10,33,29,,,,,1.07,0.61,0.88,3*0C
$GNGSA,M,3,19,20,29,30,35,,,,,,,,1.07,0.61,0.88,4*0D
$GNGSA,M,3,,,,,,,,,,,,,1.07,0.61,0.88,5*08
$GPGSV,3,1,11,05,45,046,39,11,18,115,25,13,61,077,45,15,76,188,27,1*64
$GPGSV,3,2,11,18,36,315,33,20,69,075,23,21,19,062,26,23,24,270,25,1*6E
$GPGSV,3,3,11,29,57,227,34,44,33,233,31,46,24,244,33,1*5B
$GPGSV,2,1,05,05,45,046,21,15,76,188,16,18,36,315,14,23,24,270,26,6*6B
$GPGSV,2,2,05,29,57,227,21,6*5B
$GPGSV,1,1,03,24,09,165,,30,08,050,,48,27,241,,0*5B
$GLGSV,2,1,07,66,03,034,12,67,58,022,21,68,64,236,33,69,16,220,29,1*7C
$GLGSV,2,2,07,81,23,136,09,82,69,109,29,83,48,334,22,1*4F
$GLGSV,2,1,05,67,58,022,17,68,64,236,20,69,16,220,31,82,69,109,32,3*79
$GLGSV,2,2,05,83,48,334,20,3*4E
$GAGSV,3,1,09,04,34,192,30,10,47,322,31,11,21,308,23,12,66,354,26,2*78
$GAGSV,3,2,09,16,10,252,19,19,67,104,27,25,07,297,20,29,30,046,29,2*73
$GAGSV,3,3,09,33,41,097,32,2*45
$GAGSV,3,1,10,04,34,192,27,06,11,203,27,10,47,322,32,11,21,308,16,7*71
$GAGSV,3,2,10,12,66,354,27,16,10,252,25,19,67,104,34,25,07,297,27,7*71
$GAGSV,3,3,10,29,30,046,25,33,41,097,36,7*71
$GAGSV,1,1,01,31,00,203,,0*46
$GBGSV,2,1,07,19,45,239,31,20,78,003,30,29,80,246,32,30,37,150,29,1*76
$GBGSV,2,2,07,35,26,315,31,47,68,160,25,48,74,260,21,1*43
$GBGSV,1,1,01,32,23,045,,0*47
$GQGSV,1,1,00,0*64
$GNGLL,3509.37104,N,07925.36725,W,032046.00,A,A*64
$GNRMC,032047.00,A,3509.37103,N,07925.36725,W,0.018,,060226,,,A,V*08
$GNVTG,,T,,M,0.018,N,0.033,K,A*34
$GNGGA,032047.00,3509.37103,N,07925.36725,W,1,12,0.66,147.0,M,-33.6,M,,*7D
$GNGSA,M,3,05,11,13,15,18,21,23,29,,,,,1.20,0.66,1.01,1*0D
$GNGSA,M,3,82,69,83,81,67,68,,,,,,,1.20,0.66,1.01,2*05
$GNGSA,M,3,04,19,11,12,16,10,33,29,,,,,1.20,0.66,1.01,3*0E
$GNGSA,M,3,19,20,29,30,35,,,,,,,,1.20,0.66,1.01,4*0F
$GNGSA,M,3,,,,,,,,,,,,,1.20,0.66,1.01,5*0A
$GPGSV,3,1,11,05,45,046,39,11,18,115,25,13,61,077,45,15,76,188,27,1*64
$GPGSV,3,2,11,18,36,315,33,20,69,075,23,21,19,062,25,23,24,270,26,1*6E
$GPGSV,3,3,11,29,57,227,34,44,33,233,31,46,24,244,33,1*5B
$GPGSV,2,1,05,05,45,046,21,15,76,188,16,18,36,315,13,23,24,270,26,6*6C
$GPGSV,2,2,05,29,57,227,22,6*58
$GPGSV,1,1,03,24,09,165,,30,08,050,,48,27,241,,0*5B
$GLGSV,2,1,07,66,03,034,11,67,58,022,21,68,64,236,33,69,16,220,29,1*7F
$GLGSV,2,2,07,81,23,136,16,82,69,109,29,83,48,334,23,1*40
$GLGSV,2,1,05,67,58,022,16,68,64,236,21,69,16,220,31,82,69,109,32,3*79
$GLGSV,2,2,05,83,48,334,20,3*4E
$GAGSV,3,1,09,04,34,192,30,10,47,322,31,11,21,308,23,12,66,354,26,2*78
$GAGSV,3,2,09,16,10,252,19,19,67,104,27,25,07,297,21,29,30,046,29,2*72
$GAGSV,3,3,09,33,41,097,32,2*45
$GAGSV,3,1,10,04,34,192,28,06,11,203,28,10,47,322,32,11,21,308,17,7*70
$GAGSV,3,2,10,12,66,354,28,16,10,252,25,19,67,104,34,25,07,297,27,7*7E
$GAGSV,3,3,10,29,30,046,25,33,41,097,36,7*71
$GAGSV,1,1,01,31,00,203,,0*46
$GBGSV,2,1,07,19,45,239,31,20,78,003,30,29,80,246,32,30,37,150,29,1*76
$GBGSV,2,2,07,35,26,315,32,47,68,160,25,48,74,260,21,1*40
$GBGSV,1,1,01,32,23,045,,0*47
$GQGSV,1,1,00,0*64
$GNGLL,3509.37103,N,07925.36725,W,032047.00,A,A*62
$GNRMC,032048.00,A,3509.37101,N,07925.36726,W,0.015,,060226,,,A,V*0B
$GNVTG,,T,,M,0.015,N,0.029,K,A*32
$GNGGA,032048.00,3509.37101,N,07925.36726,W,1,12,0.56,147.0,M,-33.6,M,,*70
$GNGSA,M,3,05,11,13,15,18,21,23,29,,,,,0.98,0.56,0.80,1*04
$GNGSA,M,3,82,69,83,81,67,68,,,,,,,0.98,0.56,0.80,2*0C
$GNGSA,M,3,04,06,19,11,12,16,10,33,29,,,,0.98,0.56,0.80,3*01
$GNGSA,M,3,19,20,29,30,35,,,,,,,,0.98,0.56,0.80,4*06
$GNGSA,M,3,,,,,,,,,,,,,0.98,0.56,0.80,5*03
$GPGSV,3,1,11,05,45,046,39,11,18,115,25,13,61,077,45,15,76,188,28,1*6B
$GPGSV,3,2,11,18,36,315,34,20,69,075,22,21,19,062,25,23,24,270,25,1*6B
$GPGSV,3,3,11,29,57,227,34,44,33,233,31,46,24,244,33,1*5B
$GPGSV,2,1,05,05,45,046,21,15,76,188,16,18,36,315,15,23,24,270,26,6*6A
$GPGSV,2,2,05,29,57,227,22,6*58
$GPGSV,1,1,03,24,09,165,,30,08,050,,48,27,241,,0*5B
$GLGSV,2,1,07,66,03,034,12,67,58,022,21,68,64,236,32,69,16,220,29,1*7D
$GLGSV,2,2,07,81,23,136,16,82,69,109,29,83,48,334,23,1*40
$GLGSV,2,1,05,67,58,022,17,68,64,236,22,69,16,220,31,82,69,109,32,3*7B
$GLGSV,2,2,05,83,48,334,20,3*4E
$GAGSV,3,1,09,04,34,192,30,10,47,322,31,11,21,308,23,12,66,354,26,2*78
$GAGSV,3,2,09,16,10,252,19,19,67,104,27,25,07,297,21,29,30,046,29,2*72
$GAGSV,3,3,09,33,41,097,32,2*45
$GAGSV,3,1,10,04,34,192,27,06,11,203,28,10,47,322,32,11,21,308,18,7*70
$GAGSV,3,2,10,12,66,354,28,16,10,252,25,19,67,104,34,25,07,297,27,7*7E
$GAGSV,3,3,10,29,30,046,25,33,41,097,36,7*71
$GAGSV,1,1,01,31,00,203,,0*46
$GBGSV,2,1,07,19,45,239,31,20,78,003,30,29,80,246,32,30,37,150,29,1*76
$GBGSV,2,2,07,35,26,315,32,47,68,160,25,48,74,260,21,1*40
$GBGSV,1,1,01,32,23,045,,0*47
$GQGSV,1,1,00,0*64
$GNGLL,3509.37101,N,07925.36726,W,032048.00,A,A*6C
$GNRMC,032049.00,A,3509.37098,N,07925.36725,W,0.042,,060226,,,A,V*0A
$GNVTG,,T,,M,0.042,N,0.078,K,A*34
$GNGGA,032049.00,3509.37098,N,07925.36725,W,1,12,0.60,146.8,M,-33.6,M,,*7F
$GNGSA,M,3,05,11,13,15,18,21,23,29,,,,,1.07,0.60,0.89,1*0F
$GNGSA,M,3,82,69,83,81,67,68,,,,,,,1.07,0.60,0.89,2*07
$GNGSA,M,3,04,06,19,11,12,16,10,33,29,,,,1.07,0.60,0.89,3*0A
$GNGSA,M,3,19,20,29,30,35,,,,,,,,1.07,0.60,0.89,4*0D
$GNGSA,M,3,,,,,,,,,,,,,1.07,0.60,0.89,5*08
$GPGSV,3,1,10,05,45,046,39,11,18,115,25,13,61,077,45,15,76,188,28,1*6A
$GPGSV,3,2,10,18,36,315,34,21,19,062,25,23,24,270,25,29,57,227,34,1*6C
$GPGSV,3,3,10,44,33,233,31,46,24,244,33,1*63
$GPGSV,2,1,05,05,45,046,21,15,76,188,17,18,36,315,15,23,24,270,25,6*68
$GPGSV,2,2,05,29,57,227,23,6*59
$GPGSV,1,1,04,20,69,075,,24,09,165,,30,08,050,,48,27,241,,0*63
$GLGSV,2,1,07,66,03,034,14,67,58,022,21,68,64,236,32,69,16,220,29,1*7B
$GLGSV,2,2,07,81,23,136,12,82,69,109,29,83,48,334,22,1*45
$GLGSV,2,1,05,67,58,022,18,68,64,236,21,69,16,220,31,82,69,109,32,3*77
$GLGSV,2,2,05,83,48,334,20,3*4E
$GAGSV,3,1,10,04,34,192,30,06,11,203,30,10,47,322,31,11,21,308,23,2*71
$GAGSV,3,2,10,12,66,354,26,16,10,252,18,19,67,103,27,25,07,297,21,2*78
$GAGSV,3,3,10,29,30,046,29,33,41,097,31,2*7F
$GAGSV,3,1,10,04,34,192,27,06,11,203,27,10,47,322,32,11,21,308,20,7*74
$GAGSV,3,2,10,12,66,354,28,16,10,252,25,19,67,103,34,25,07,297,28,7*76
$GAGSV,3,3,10,29,30,046,25,33,41,097,36,7*71
$GAGSV,1,1,01,31,00,203,,0*46
$GBGSV,2,1,07,19,45,239,31,20,78,003,29,29,80,246,32,30,37,150,29,1*7E
$GBGSV,2,2,07,35,26,315,32,47,68,160,25,48,74,260,21,1*40
$GBGSV,1,1,01,32,23,045,,0*47
$GQGSV,1,1,00,0*64
$GNGLL,3509.37098,N,07925.36725,W,032049.00,A,A*6F
$GNRMC,032050.00,A,3509.37096,N,07925.36722,W,0.029,,060226,,,A,V*06
$GNVTG,,T,,M,0.029,N,0.054,K,A*37
$GNGGA,032050.00,3509.37096,N,07925.36722,W,1,12,0.64,146.7,M,-33.6,M,,*75
$GNGSA,M,3,05,11,13,15,18,21,23,29,,,,,1.14,0.64,0.94,1*05
$GNGSA,M,3,82,69,83,67,68,,,,,,,,1.14,0.64,0.94,2*04
$GNGSA,M,3,04,06,19,11,12,16,10,33,29,,,,1.14,0.64,0.94,3*00
$GNGSA,M,3,19,20,29,30,35,,,,,,,,1.14,0.64,0.94,4*07
$GNGSA,M,3,,,,,,,,,,,,,1.14,0.64,0.94,5*02
$GPGSV,3,1,10,05,45,046,39,11,18,115,25,13,61,077,45,15,76,188,29,1*6B
$GPGSV,3,2,10,18,36,315,34,21,19,062,24,23,24,270,25,29,57,227,34,1*6D
$GPGSV,3,3,10,44,33,233,31,46,24,244,33,1*63
$GPGSV,2,1,05,05,45,046,20,15,76,188,18,18,36,315,15,23,24,270,25,6*66
$GPGSV,2,2,05,29,57,227,23,6*59
$GPGSV,1,1,04,20,69,075,,24,09,165,,30,08,050,,48,27,241,,0*63
$GLGSV,2,1,07,66,03,034,14,67,58,022,20,68,64,236,33,69,16,220,29,1*7B
$GLGSV,2,2,07,81,23,136,07,82,69,109,29,83,48,334,22,1*41
$GLGSV,2,1,05,67,58,022,17,68,64,236,20,69,16,220,31,82,69,109,32,3*79
$GLGSV,2,2,05,83,48,334,21,3*4F
$GAGSV,3,1,10,04,34,192,30,06,11,203,30,10,47,322,31,11,21,308,23,2*71
$GAGSV,3,2,10,12,66,354,26,16,10,252,18,19,67,103,27,25,07,297,20,2*79
$GAGSV,3,3,10,29,30,046,29,33,41,097,31,2*7F
$GAGSV,3,1,10,04,34,192,27,06,11,203,28,10,47,322,33,11,21,308,20,7*7A
$GAGSV,3,2,10,12,66,354,28,16,10,252,24,19,67,103,34,25,07,297,27,7*78
$GAGSV,3,3,10,29,30,046,24,33,41,097,37,7*71
$GAGSV,1,1,01,31,00,203,,0*46
$GBGSV,2,1,07,19,45,239,31,20,78,003,29,29,80,246,33,30,37,150,29,1*7F
$GBGSV,2,2,07,35,26,315,31,47,68,160,25,48,74,260,21,1*43
$GBGSV,1,1,01,32,23,045,,0*47
$GQGSV,1,1,00,0*64
$GNGLL,3509.37096,N,07925.36722,W,032050.00,A,A*6E
$GNRMC,032051.00,A,3509.37094,N,07925.36719,W,0.027,,060226,,,A,V*03
$GNVTG,,T,,M,0.027,N,0.050,K,A*3D
$GNGGA,032051.00,3509.37094,N,07925.36719,W,1,12,0.60,146.5,M,-33.6,M,,*78
$GNGSA,M,3,05,11,13,15,18,21,23,29,,,,,1.07,0.60,0.89,1*0F
$GNGSA,M,3,82,69,83,81,67,68,,,,,,,1.07,0.60,0.89,2*07
$GNGSA,M,3,04,06,19,11,12,16,10,33,29,,,,1.07,0.60,0.89,3*0A
$GNGSA,M,3,19,20,29,30,35,,,,,,,,1.07,0.60,0.89,4*0D
$GNGSA,M,3,,,,,,,,,,,,,1.07,0.60,0.89,5*08
$GPGSV,3,1,10,05,45,046,39,11,18,115,25,13,61,077,45,15,76,188,30,1*63
$GPGSV,3,2,10,18,36,315,34,21,19,062,22,23,24,270,26,29,57,227,34,1*68
$GPGSV,3,3,10,44,33,233,31,46,24,244,33,1*63
$GPGSV,2,1,05,05,45,046,20,15,76,188,18,18,36,315,15,23,24,270,25,6*66
$GPGSV,2,2,05,29,57,227,23,6*59
$GPGSV,1,1,04,20,69,075,,24,09,165,,30,08,050,,48,27,241,,0*63
$GLGSV,2,1,07,66,03,034,13,67,58,022,20,68,64,236,33,69,16,220,28,1*7D
$GLGSV,2,2,07,81,23,136,11,82,69,109,29,83,48,334,22,1*46
$GLGSV,2,1,05,67,58,022,17,68,64,236,20,69,16,220,31,82,69,109,32,3*79
$GLGSV,2,2,05,83,48,334,21,3*4F
$GAGSV,3,1,10,04,34,192,30,06,11,203,30,10,47,322,31,11,21,308,23,2*71
$GAGSV,3,2,10,12,66,354,26,16,10,252,17,19,67,103,27,25,07,297,20,2*76
$GAGSV,3,3,10,29,30,046,29,33,41,097,32,2*7C
$GAGSV,3,1,10,04,34,192,27,06,11,203,28,10,47,322,33,11,21,308,20,7*7A
$GAGSV,3,2,10,12,66,354,28,16,10,252,24,19,67,103,34,25,07,297,28,7*77
$GAGSV,3,3,10,29,30,046,24,33,41,097,36,7*70
$GAGSV,1,1,01,31,00,203,,0*46
$GBGSV,2,1,07,19,45,239,31,20,78,003,29,29,80,246,33,30,37,150,29,1*7F
$GBGSV,2,2,07,35,26,315,31,47,68,160,25,48,74,260,21,1*43
$GBGSV,1,1,01,32,23,045,,0*47
$GQGSV,1,1,00,0*64
$GNGLL,3509.37094,N,07925.36719,W,032051.00,A,A*65
$GNRMC,032052.00,A,3509.37092,N,07925.36716,W,0.023,,060226,,,A,V*0D
$GNVTG,,T,,M,0.023,N,0.042,K,A*3A
$GNGGA,032052.00,3509.37092,N,07925.36716,W,1,12,0.60,146.4,M,-33.6,M,,*73
$GNGSA,M,3,05,11,13,15,18,21,23,29,,,,,1.07,0.60,0.89,1*0F
$GNGSA,M,3,82,69,83,81,67,68,,,,,,,1.07,0.60,0.89,2*07
$GNGSA,M,3,04,06,19,11,12,16,10,33,29,,,,1.07,0.60,0.89,3*0A
$GNGSA,M,3,19,20,29,30,35,,,,,,,,1.07,0.60,0.89,4*0D
$GNGSA,M,3,,,,,,,,,,,,,1.07,0.60,0.89,5*08
$GPGSV,3,1,10,05,45,046,39,11,18,115,25,13,61,077,45,15,76,188,30,1*63
$GPGSV,3,2,10,18,36,315,34,21,19,062,21,23,24,270,26,29,57,227,34,1*6B
$GPGSV,3,3,10,44,33,233,31,46,24,244,33,1*63
$GPGSV,2,1,05,05,45,046,20,15,76,188,17,18,36,315,15,23,24,270,24,6*68
$GPGSV,2,2,05,29,57,227,23,6*59
$GPGSV,1,1,04,20,69,075,,24,09,165,,30,08,050,,48,27,241,,0*63
$GLGSV,2,1,07,66,03,034,11,67,58,022,19,68,64,236,33,69,16,220,28,1*75
$GLGSV,2,2,07,81,23,136,16,82,69,109,29,83,48,334,21,1*42
$GLGSV,2,1,05,67,58,022,19,68,64,236,19,69,16,220,31,82,69,109,32,3*7D
$GLGSV,2,2,05,83,48,334,21,3*4F
$GAGSV,3,1,10,04,34,192,30,06,11,203,30,10,47,322,31,11,21,308,23,2*71
$GAGSV,3,2,10,12,66,354,26,16,10,252,17,19,67,103,27,25,07,297,20,2*76
$GAGSV,3,3,10,29,30,046,29,33,41,097,32,2*7C
$GAGSV,3,1,10,04,34,192,27,06,11,203,28,10,47,322,32,11,21,308,21,7*7A
$GAGSV,3,2,10,12,66,354,28,16,10,252,24,19,67,103,34,25,07,297,28,7*77
$GAGSV,3,3,10,29,30,046,24,33,41,097,36,7*70
$GAGSV,1,1,01,31,00,203,,0*46
$GBGSV,2,1,07,19,45,239,31,20,78,003,29,29,80,246,33,30,37,150,29,1*7F
$GBGSV,2,2,07,35,26,315,31,47,68,160,25,48,74,260,22,1*40
$GBGSV,1,1,01,19,45,239,15,B*31
$GBGSV,1,1,01,32,23,045,,0*47
$GQGSV,1,1,00,0*64
$GNGLL,3509.37092,N,07925.36716,W,032052.00,A,A*6F
$GNRMC,032053.00,A,3509.37089,N,07925.36714,W,0.024,,060226,,,A,V*03
$GNVTG,,T,,M,0.024,N,0.045,K,A*3A
$GNGGA,032053.00,3509.37089,N,07925.36714,W,1,12,0.60,146.3,M,-33.6,M,,*7D
$GNGSA,M,3,05,11,13,15,18,23,29,,,,,,1.07,0.60,0.89,1*0C
$GNGSA,M,3,82,69,83,81,67,68,,,,,,,1.07,0.60,0.89,2*07
$GNGSA,M,3,04,06,19,11,12,16,10,33,29,,,,1.07,0.60,0.89,3*0A
$GNGSA,M,3,19,20,29,30,35,,,,,,,,1.07,0.60,0.89,4*0D
$GNGSA,M,3,,,,,,,,,,,,,1.07,0.60,0.89,5*08
$GPGSV,3,1,09,05,45,046,39,11,18,115,25,13,61,077,45,15,76,188,30,1*6B
$GPGSV,3,2,09,18,36,315,34,23,24,270,26,29,57,227,34,44,33,233,31,1*6F
$GPGSV,3,3,09,46,24,244,33,1*5B
$GPGSV,1,1,01,11,18,115,16,5*5A
$GPGSV,2,1,05,05,45,046,20,15,76,188,17,18,36,315,15,23,24,270,24,6*68
$GPGSV,2,2,05,29,57,227,24,6*5E
$GPGSV,2,1,05,20,69,075,,21,19,062,,24,09,165,,30,08,050,,0*60
$GPGSV,2,2,05,48,27,241,,0*5E
$GLGSV,2,1,07,66,03,034,10,67,58,022,19,68,64,236,33,69,16,220,27,1*7B
$GLGSV,2,2,07,81,23,136,16,82,69,109,30,83,48,334,21,1*4A
$GLGSV,2,1,05,67,58,022,20,68,64,236,19,69,16,220,31,82,69,109,32,3*77
$GLGSV,2,2,05,83,48,334,21,3*4F
$GAGSV,3,1,10,04,34,192,30,06,11,203,29,10,47,322,31,11,21,308,23,2*79
$GAGSV,3,2,10,12,66,354,26,16,10,252,16,19,67,103,27,25,07,297,20,2*77
$GAGSV,3,3,10,29,30,046,29,33,41,097,32,2*7C
$GAGSV,3,1,10,04,34,192,27,06,11,203,28,10,47,322,33,11,21,308,21,7*7B
$GAGSV,3,2,10,12,66,354,28,16,10,252,24,19,67,103,34,25,07,297,28,7*77
$GAGSV,3,3,10,29,30,046,24,33,41,097,36,7*70
$GAGSV,1,1,01,31,00,203,,0*46
$GBGSV,2,1,07,19,45,239,31,20,78,003,29,29,80,246,33,30,37,150,29,1*7F
$GBGSV,2,2,07,35,26,315,31,47,68,160,25,48,74,260,22,1*40
$GBGSV,1,1,01,19,45,239,12,B*36
$GBGSV,1,1,01,32,23,045,,0*47
$GQGSV,1,1,00,0*64
$GNGLL,3509.37089,N,07925.36714,W,032053.00,A,A*66
$GNRMC,032054.00,A,3509.37087,N,07925.36712,W,0.020,,060226,,,A,V*08
$GNVTG,,T,,M,0.020,N,0.036,K,A*3A
$GNGGA,032054.00,3509.37087,N,07925.36712,W,1,12,0.60,146.1,M,-33.6,M,,*70
$GNGSA,M,3,05,11,13,15,18,23,29,,,,,,1.07,0.60,0.89,1*0C
$GNGSA,M,3,82,69,83,81,67,68,,,,,,,1.07,0.60,0.89,2*07
$GNGSA,M,3,04,06,19,11,12,16,10,33,29,,,,1.07,0.60,0.89,3*0A
$GNGSA,M,3,19,20,29,30,35,,,,,,,,1.07,0.60,0.89,4*0D
$GNGSA,M,3,,,,,,,,,,,,,1.07,0.60,0.89,5*08
$GPGSV,3,1,09,05,45,046,39,11,18,115,25,13,61,077,45,15,76,188,31,1*6A
$GPGSV,3,2,09,18,36,315,34,23,24,270,26,29,57,227,33,44,33,233,31,1*68
$GPGSV,3,3,09,46,24,244,33,1*5B
$GPGSV,1,1,01,11,18,115,17,5*5B
$GPGSV,2,1,05,05,45,046,20,15,76,188,16,18,36,315,14,23,24,270,23,6*6F
$GPGSV,2,2,05,29,57,227,24,6*5E
$GPGSV,2,1,05,20,69,075,,21,19,062,,24,09,165,,30,08,050,,0*60
$GPGSV,2,2,05,48,27,241,,0*5E
$GLGSV,2,1,07,66,03,034,10,67,58,022,19,68,64,236,33,69,16,220,27,1*7B
$GLGSV,2,2,07,81,23,136,16,82,69,109,30,83,48,334,22,1*49
$GLGSV,2,1,05,67,58,022,20,68,64,236,18,69,16,220,31,82,69,109,32,3*76
$GLGSV,2,2,05,83,48,334,21,3*4F
$GAGSV,3,1,10,04,34,192,30,06,11,203,29,10,47,322,31,11,21,308,23,2*79
$GAGSV,3,2,10,12,66,354,26,16,10,252,17,19,67,103,27,25,07,297,20,2*76
$GAGSV,3,3,10,29,30,046,29,33,41,097,31,2*7F
$GAGSV,3,1,10,04,34,192,27,06,11,203,28,10,47,322,32,11,21,308,21,7*7A
$GAGSV,3,2,10,12,66,354,28,16,10,252,24,19,67,103,33,25,07,297,27,7*7F
$GAGSV,3,3,10,29,30,046,24,33,41,097,36,7*70
$GAGSV,1,1,01,31,00,203,,0*46
$GBGSV,2,1,07,19,45,239,32,20,78,003,29,29,80,246,33,30,37,150,29,1*7C
$GBGSV,2,2,07,35,26,315,31,47,68,160,25,48,74,260,22,1*40
$GBGSV,1,1,01,19,45,239,10,B*34
$GBGSV,1,1,01,32,23,045,,0*47
$GQGSV,1,1,00,0*64
$GNGLL,3509.37087,N,07925.36712,W,032054.00,A,A*69
$GNRMC,032055.00,A,3509.37085,N,07925.36709,W,0.030,,060226,,,A,V*00
$GNVTG,,T,,M,0.030,N,0.055,K,A*3E
$GNGGA,032055.00,3509.37085,N,07925.36709,W,1,12,0.60,146.0,M,-33.6,M,,*78
$GNGSA,M,3,05,11,13,15,18,23,29,,,,,,1.07,0.60,0.89,1*0C
$GNGSA,M,3,82,69,83,81,67,68,,,,,,,1.07,0.60,0.89,2*07
$GNGSA,M,3,04,06,19,11,12,16,10,33,29,,,,1.07,0.60,0.89,3*0A
$GNGSA,M,3,19,20,29,30,35,,,,,,,,1.07,0.60,0.89,4*0D
$GNGSA,M,3,,,,,,,,,,,,,1.07,0.60,0.89,5*08
$GPGSV,3,1,09,05,45,046,39,11,18,115,24,13,61,077,45,15,76,188,30,1*6A
$GPGSV,3,2,09,18,36,315,34,23,24,270,26,29,57,227,33,44,33,233,31,1*68
$GPGSV,3,3,09,46,24,244,33,1*5B
$GPGSV,2,1,06,05,45,046,20,11,18,115,17,15,76,188,15,18,36,315,15,6*67
$GPGSV,2,2,06,23,24,270,23,29,57,227,23,6*69
$GPGSV,2,1,05,20,69,075,,21,19,062,,24,09,165,,30,08,050,,0*60
$GPGSV,2,2,05,48,27,241,,0*5E
$GLGSV,2,1,07,66,03,034,10,67,58,022,19,68,64,236,33,69,16,220,27,1*7B
$GLGSV,2,2,07,81,23,136,15,82,69,109,30,83,48,334,22,1*4A
$GLGSV,2,1,05,67,58,022,19,68,64,236,17,69,16,220,31,82,69,109,32,3*73
$GLGSV,2,2,05,83,48,334,22,3*4C
$GAGSV,3,1,10,04,34,192,30,06,11,203,29,10,47,322,31,11,21,308,23,2*79
$GAGSV,3,2,10,12,66,354,26,16,10,252,17,19,67,103,27,25,07,297,20,2*76
$GAGSV,3,3,10,29,30,046,29,33,41,097,31,2*7F
$GAGSV,3,1,10,04,34,192,27,06,11,203,27,10,47,322,33,11,21,308,21,7*74
$GAGSV,3,2,10,12,66,354,28,16,10,252,24,19,67,103,33,25,07,297,27,7*7F
$GAGSV,3,3,10,29,30,046,24,33,41,097,36,7*70
$GAGSV,1,1,01,31,00,203,,0*46
$GBGSV,2,1,07,19,45,239,32,20,78,003,29,29,80,246,33,30,37,150,29,1*7C
$GBGSV,2,2,07,35,26,315,30,47,67,160,25,48,74,260,22,1*4E
$GBGSV,1,1,01,19,45,239,08,B*3D
$GBGSV,1,1,01,32,23,045,,0*47
$GQGSV,1,1,00,0*64
$GNGLL,3509.37085,N,07925.36709,W,032055.00,A,A*60
$GNRMC,032056.00,A,3509.37083,N,07925.36707,W,0.018,,060226,,,A,V*01
$GNVTG,,T,,M,0.018,N,0.033,K,A*34
$GNGGA,032056.00,3509.37083,N,07925.36707,W,1,12,0.60,146.0,M,-33.6,M,,*73
$GNGSA,M,3,05,11,13,15,18,23,29,,,,,,1.07,0.60,0.89,1*0C
$GNGSA,M,3,82,69,83,81,67,68,,,,,,,1.07,0.60,0.89,2*07
$GNGSA,M,3,04,06,19,11,12,16,10,33,29,,,,1.07,0.60,0.89,3*0A
$GNGSA,M,3,19,20,29,30,35,,,,,,,,1.07,0.60,0.89,4*0D
$GNGSA,M,3,,,,,,,,,,,,,1.07,0.60,0.89,5*08
$GPGSV,3,1,09,05,45,046,39,11,18,115,24,13,61,077,45,15,76,188,31,1*6B
$GPGSV,3,2,09,18,36,315,34,23,24,270,26,29,57,227,33,44,33,233,31,1*68
$GPGSV,3,3,09,46,24,244,32,1*5A
$GPGSV,2,1,06,05,45,046,19,11,18,115,18,15,76,188,16,18,36,315,14,6*60
$GPGSV,2,2,06,23,24,270,23,29,57,227,23,6*69
$GPGSV,2,1,05,20,69,075,,21,19,062,,24,09,165,,30,08,050,,0*60
$GPGSV,2,2,05,48,27,241,,0*5E
$GLGSV,2,1,07,66,03,034,12,67,58,022,18,68,64,236,33,69,16,220,27,1*78
$GLGSV,2,2,07,81,23,136,14,82,69,109,30,83,48,334,22,1*4B
$GLGSV,2,1,05,67,58,022,19,68,64,236,17,69,16,220,30,82,69,109,32,3*72
$GLGSV,2,2,05,83,48,334,22,3*4C
$GAGSV,3,1,10,04,34,192,30,06,11,203,29,10,47,322,31,11,21,308,22,2*78
$GAGSV,3,2,10,12,66,354,26,16,10,252,18,19,67,103,27,25,07,297,21,2*78
$GAGSV,3,3,10,29,30,046,29,33,41,097,31,2*7F
$GAGSV,3,1,10,04,34,192,27,06,11,203,27,10,47,322,33,11,21,308,22,7*77
$GAGSV,3,2,10,12,66,354,27,16,10,252,25,19,67,103,33,25,07,297,27,7*71
$GAGSV,3,3,10,29,30,046,23,33,41,097,36,7*77
$GAGSV,1,1,01,31,00,203,,0*46
$GBGSV,2,1,07,19,45,239,33,20,78,003,29,29,80,246,33,30,37,150,29,1*7D
$GBGSV,2,2,07,35,26,315,30,47,67,160,25,48,74,262,23,1*4D
$GBGSV,1,1,01,19,45,239,07,B*32
$GBGSV,1,1,01,32,23,045,,0*47
$GQGSV,1,1,00,0*64
$GNGLL,3509.37083,N,07925.36707,W,032056.00,A,A*6B
$GNRMC,032057.00,A,3509.37080,N,07925.36705,W,0.032,,060226,,,A,V*09
$GNVTG,,T,,M,0.032,N,0.059,K,A*30
$GNGGA,032057.00,3509.37080,N,07925.36705,W,1,12,0.60,145.9,M,-33.6,M,,*79
$GNGSA,M,3,05,11,13,15,18,23,29,,,,,,1.07,0.60,0.89,1*0C
$GNGSA,M,3,82,69,83,81,67,68,,,,,,,1.07,0.60,0.89,2*07
$GNGSA,M,3,04,06,19,11,12,16,10,33,29,,,,1.07,0.60,0.89,3*0A
$GNGSA,M,3,19,20,29,30,35,,,,,,,,1.07,0.60,0.89,4*0D
$GNGSA,M,3,,,,,,,,,,,,,1.07,0.60,0.89,5*08
$GPGSV,3,1,09,05,45,046,39,11,18,115,24,13,61,077,45,15,76,188,31,1*6B
$GPGSV,3,2,09,18,36,315,34,23,24,270,26,29,57,227,32,44,33,233,31,1*69
$GPGSV,3,3,09,46,24,244,33,1*5B
$GPGSV,2,1,06,05,45,046,18,11,18,115,17,15,76,188,16,18,36,315,14,6*6E
$GPGSV,2,2,06,23,24,270,22,29,57,227,23,6*68
$GPGSV,2,1,05,20,69,075,,21,19,062,,24,09,165,,30,08,050,,0*60
$GPGSV,2,2,05,48,27,241,,0*5E
$GLGSV,2,1,07,66,03,034,12,67,58,022,19,68,64,236,33,69,16,220,26,1*78
$GLGSV,2,2,07,81,23,136,13,82,69,109,30,83,48,334,21,1*4F
$GLGSV,2,1,05,67,58,022,18,68,64,236,17,69,16,220,30,82,69,109,32,3*73
$GLGSV,2,2,05,83,48,334,22,3*4C
$GAGSV,3,1,10,04,34,192,30,06,11,203,29,10,47,322,31,11,21,308,22,2*78
$GAGSV,3,2,10,12,66,354,26,16,10,252,18,19,67,103,27,25,07,297,21,2*78
$GAGSV,3,3,10,29,30,046,29,33,41,097,31,2*7F
$GAGSV,3,1,10,04,34,192,27,06,11,203,27,10,47,322,33,11,21,308,22,7*77
$GAGSV,3,2,10,12,66,354,27,16,10,252,25,19,67,103,33,25,07,297,27,7*71
$GAGSV,3,3,10,29,30,046,23,33,41,097,36,7*77
$GAGSV,1,1,01,31,00,203,,0*46
$GBGSV,2,1,07,19,45,239,33,20,78,003,29,29,80,246,33,30,37,150,29,1*7D
$GBGSV,2,2,07,35,26,315,30,47,67,160,25,48,74,262,23,1*4D
$GBGSV,1,1,01,19,45,239,07,B*32
$GBGSV,1,1,01,32,23,045,,0*47
$GQGSV,1,1,00,0*64
$GNGLL,3509.37080,N,07925.36705,W,032057.00,A,A*6B
$GNRMC,032058.00,A,3509.37078,N,07925.36703,W,0.019,,060226,,,A,V*0E
$GNVTG,,T,,M,0.019,N,0.036,K,A*30
$GNGGA,032058.00,3509.37078,N,07925.36703,W,1,12,0.60,145.8,M,-33.6,M,,*76
$GNGSA,M,3,05,11,13,15,18,23,29,,,,,,1.07,0.60,0.89,1*0C
$GNGSA,M,3,82,69,83,81,67,68,,,,,,,1.07,0.60,0.89,2*07
$GNGSA,M,3,04,06,19,11,12,16,10,33,29,,,,1.07,0.60,0.89,3*0A
$GNGSA,M,3,19,20,29,30,35,,,,,,,,1.07,0.60,0.89,4*0D
$GNGSA,M,3,,,,,,,,,,,,,1.07,0.60,0.89,5*08
$GPGSV,3,1,09,05,45,046,39,11,18,115,23,13,61,077,45,15,76,188,31,1*6C
$GPGSV,3,2,09,18,36,315,35,23,24,270,26,29,57,227,32,44,33,233,31,1*68
$GPGSV,3,3,09,46,24,244,33,1*5B
$GPGSV,2,1,06,05,45,046,19,11,18,115,18,15,76,188,15,18,36,315,14,6*63
$GPGSV,2,2,06,23,24,270,23,29,57,227,23,6*69
$GPGSV,2,1,05,20,69,075,,21,19,062,,24,09,165,,30,08,050,,0*60
$GPGSV,2,2,05,48,27,241,,0*5E
$GLGSV,2,1,07,66,03,034,13,67,58,022,20,68,64,236,34,69,16,220,26,1*74
$GLGSV,2,2,07,81,23,136,11,82,69,109,30,83,48,334,20,1*4C
$GLGSV,2,1,05,67,58,022,18,68,64,236,17,69,16,220,30,82,69,109,32,3*73
$GLGSV,2,2,05,83,48,334,23,3*4D
$GAGSV,3,1,10,04,34,192,30,06,11,203,29,10,47,322,31,11,21,308,22,2*78
$GAGSV,3,2,10,12,66,354,26,16,10,252,18,19,67,103,27,25,07,297,20,2*79
$GAGSV,3,3,10,29,30,046,29,33,41,097,31,2*7F
$GAGSV,3,1,10,04,34,192,27,06,11,203,27,10,47,322,33,11,21,308,23,7*76
$GAGSV,3,2,10,12,66,354,28,16,10,252,25,19,67,103,33,25,07,297,27,7*7E
$GAGSV,3,3,10,29,30,046,23,33,41,097,36,7*77
$GAGSV,1,1,01,31,00,203,,0*46
$GBGSV,2,1,07,19,45,239,34,20,78,003,29,29,80,246,33,30,37,150,29,1*7A
$GBGSV,2,2,07,35,26,315,30,47,67,160,25,48,74,262,23,1*4D
$GBGSV,1,1,01,19,45,239,07,B*32
$GBGSV,1,1,01,32,23,045,,0*47
$GQGSV,1,1,00,0*64
$GNGLL,3509.37078,N,07925.36703,W,032058.00,A,A*65
$GNRMC,032059.00,A,3509.37075,N,07925.36702,W,0.018,,060226,,,A,V*02
$GNVTG,,T,,M,0.018,N,0.032,K,A*35
$GNGGA,032059.00,3509.37075,N,07925.36702,W,1,12,0.64,145.8,M,-33.6,M,,*7F
$GNGSA,M,3,05,11,13,15,18,23,29,,,,,,1.14,0.64,0.94,1*06
$GNGSA,M,3,82,69,83,67,68,,,,,,,,1.14,0.64,0.94,2*04
$GNGSA,M,3,04,06,19,11,12,16,10,33,29,,,,1.14,0.64,0.94,3*00
$GNGSA,M,3,19,20,29,30,35,,,,,,,,1.14,0.64,0.94,4*07
$GNGSA,M,3,,,,,,,,,,,,,1.14,0.64,0.94,5*02
$GPGSV,3,1,09,05,45,046,39,11,18,115,23,13,61,077,45,15,76,188,30,1*6D
$GPGSV,3,2,09,18,36,315,35,23,24,270,27,29,57,227,32,44,33,233,31,1*69
$GPGSV,3,3,09,46,24,244,33,1*5B
$GPGSV,2,1,07,05,45,046,19,11,18,115,18,15,76,188,15,18,36,315,16,6*60
$GPGSV,2,2,07,21,19,062,15,23,24,270,22,29,57,227,22,6*53
$GPGSV,1,1,04,20,69,075,,24,09,165,,30,08,050,,48,27,241,,0*63
$GLGSV,2,1,07,66,03,034,12,67,58,022,20,68,64,236,34,69,16,220,26,1*75
$GLGSV,2,2,07,81,23,136,09,82,69,109,30,83,48,334,18,1*4E
$GLGSV,2,1,05,67,58,022,19,68,64,236,18,69,16,220,30,82,69,109,32,3*7D
$GLGSV,2,2,05,83,48,334,23,3*4D
$GAGSV,3,1,10,04,34,192,30,06,11,203,29,10,47,322,31,11,21,308,22,2*78
$GAGSV,3,2,10,12,66,354,25,16,10,252,17,19,67,103,27,25,07,297,20,2*75
$GAGSV,3,3,10,29,30,046,29,33,41,097,31,2*7F
$GAGSV,3,1,10,04,34,192,27,06,11,203,27,10,47,322,33,11,21,308,23,7*76
$GAGSV,3,2,10,12,66,354,27,16,10,252,25,19,67,103,33,25,07,297,27,7*71
$GAGSV,3,3,10,29,30,046,23,33,41,097,36,7*77
$GAGSV,1,1,01,31,00,203,,0*46
$GBGSV,2,1,07,19,45,239,34,20,78,003,28,29,80,246,33,30,37,150,29,1*7B
$GBGSV,2,2,07,35,26,315,30,47,67,160,25,48,74,262,23,1*4D
$GBGSV,1,1,01,19,45,239,08,B*3D
$GBGSV,1,1,01,32,23,045,,0*47
$GQGSV,1,1,00,0*64
$GNGLL,3509.37075,N,07925.36702,W,032059.00,A,A*68
$GNRMC,032100.00,A,3509.37074,N,07925.36701,W,0.030,,060226,,,A,V*07
$GNVTG,,T,,M,0.030,N,0.055,K,A*3E
$GNGGA,032100.00,3509.37074,N,07925.36701,W,1,12,0.64,145.7,M,-33.6,M,,*7F
$GNGSA,M,3,05,11,13,15,18,23,29,,,,,,1.14,0.64,0.94,1*06
$GNGSA,M,3,82,69,83,67,68,,,,,,,,1.14,0.64,0.94,2*04
$GNGSA,M,3,04,06,19,11,12,16,10,33,29,,,,1.14,0.64,0.94,3*00
$GNGSA,M,3,19,20,29,30,35,,,,,,,,1.14,0.64,0.94,4*07
$GNGSA,M,3,,,,,,,,,,,,,1.14,0.64,0.94,5*02
$GPGSV,3,1,09,05,45,046,39,11,18,115,23,13,61,077,45,15,76,188,31,1*6C
$GPGSV,3,2,09,18,36,315,35,23,24,270,27,29,57,227,32,44,33,233,31,1*69
$GPGSV,3,3,09,46,24,244,33,1*5B
$GPGSV,2,1,07,05,45,046,18,11,18,115,18,15,76,188,15,18,36,315,17,6*60
$GPGSV,2,2,07,21,19,062,15,23,24,270,23,29,57,227,22,6*52
$GPGSV,1,1,04,20,69,075,,24,09,165,,30,08,050,,48,27,241,,0*63
$GLGSV,2,1,07,66,03,034,12,67,58,022,21,68,64,236,34,69,16,220,26,1*74
$GLGSV,2,2,07,81,23,136,08,82,69,109,30,83,48,334,16,1*41
$GLGSV,2,1,05,67,58,022,18,68,64,236,18,69,16,220,31,82,69,109,32,3*7D
$GLGSV,2,2,05,83,48,334,22,3*4C
$GAGSV,3,1,10,04,34,192,30,06,11,203,29,10,47,322,31,11,21,308,22,2*78
$GAGSV,3,2,10,12,66,354,25,16,10,252,15,19,67,103,27,25,07,297,20,2*77
$GAGSV,3,3,10,29,30,046,29,33,41,097,31,2*7F
$GAGSV,3,1,10,04,34,192,27,06,11,203,27,10,47,322,33,11,21,308,24,7*71
$GAGSV,3,2,10,12,66,354,27,16,10,252,25,19,67,103,33,25,07,297,27,7*71
$GAGSV,3,3,10,29,30,046,23,33,41,097,36,7*77
$GAGSV,1,1,01,31,00,203,,0*46
$GBGSV,2,1,07,19,45,239,34,20,78,003,28,29,80,246,33,30,37,150,29,1*7B
$GBGSV,2,2,07,35,26,315,29,47,67,160,24,48,74,262,24,1*43
$GBGSV,1,1,01,19,45,239,08,B*3D
$GBGSV,1,1,01,32,23,045,,0*47
$GQGSV,1,1,00,0*64
$GNGLL,3509.37074,N,07925.36701,W,032100.00,A,A*67
$GNRMC,032101.00,A,3509.37073,N,07925.36699,W,0.026,,060226,,,A,V*06
$GNVTG,,T,,M,0.026,N,0.048,K,A*35
$GNGGA,032101.00,3509.37073,N,07925.36699,W,1,12,0.64,145.6,M,-33.6,M,,*78
$GNGSA,M,3,05,11,13,15,18,23,29,,,,,,1.14,0.64,0.94,1*06
$GNGSA,M,3,82,69,83,67,68,,,,,,,,1.14,0.64,0.94,2*04
$GNGSA,M,3,04,06,19,11,12,16,10,33,29,,,,1.14,0.64,0.94,3*00
$GNGSA,M,3,19,20,29,30,35,,,,,,,,1.14,0.64,0.94,4*07
$GNGSA,M,3,,,,,,,,,,,,,1.14,0.64,0.94,5*02
$GPGSV,3,1,09,05,45,046,39,11,18,115,22,13,61,077,45,15,76,188,31,1*6D
$GPGSV,3,2,09,18,36,315,35,23,24,270,27,29,57,227,32,44,33,233,31,1*69
$GPGSV,3,3,09,46,24,244,33,1*5B
$GPGSV,2,1,07,05,45,046,17,11,18,115,17,15,76,188,16,18,36,315,17,6*63
$GPGSV,2,2,07,21,19,062,13,23,24,270,23,29,57,227,22,6*54
$GPGSV,1,1,04,20,69,075,,24,09,165,,30,08,050,,48,27,241,,0*63
$GLGSV,2,1,07,66,03,035,10,67,58,022,22,68,64,236,34,69,16,220,26,1*74
$GLGSV,2,2,07,81,23,136,08,82,69,109,30,83,48,334,14,1*43
$GLGSV,2,1,05,67,58,022,17,68,64,236,18,69,16,220,30,82,69,109,32,3*73
$GLGSV,2,2,05,83,48,334,23,3*4D
$GAGSV,3,1,09,04,34,192,30,06,11,203,29,10,47,322,31,11,21,308,22,2*70
$GAGSV,3,2,09,12,66,354,26,19,67,103,27,25,07,297,19,29,30,046,29,2*70
$GAGSV,3,3,09,33,41,097,31,2*46
$GAGSV,3,1,10,04,34,192,27,06,11,203,27,10,47,322,33,11,21,308,24,7*71
$GAGSV,3,2,10,12,66,354,27,16,10,252,25,19,67,103,33,25,07,297,27,7*71
$GAGSV,3,3,10,29,30,046,23,33,41,097,36,7*77
$GAGSV,1,1,01,31,00,203,,0*46
$GBGSV,2,1,07,19,45,239,34,20,78,003,28,29,80,246,33,30,37,150,29,1*7B
$GBGSV,2,2,07,35,26,315,29,47,67,160,25,48,74,262,25,1*43
$GBGSV,1,1,01,19,45,239,07,B*32
$GBGSV,1,1,01,32,23,045,,0*47
$GQGSV,1,1,00,0*64
$GNGLL,3509.37073,N,07925.36699,W,032101.00,A,A*61
$GNRMC,032102.00,A,3509.37071,N,07925.36698,W,0.016,,060226,,,A,V*05
$GNVTG,,T,,M,0.016,N,0.029,K,A*31
$GNGGA,032102.00,3509.37071,N,07925.36698,W,1,12,0.60,145.5,M,-33.6,M,,*7F
$GNGSA,M,3,05,11,13,15,18,23,29,,,,,,1.07,0.60,0.89,1*0C
$GNGSA,M,3,82,69,83,81,67,68,,,,,,,1.07,0.60,0.89,2*07
$GNGSA,M,3,04,06,19,11,12,16,10,33,29,,,,1.07,0.60,0.89,3*0A
$GNGSA,M,3,19,20,29,30,35,,,,,,,,1.07,0.60,0.89,4*0D
$GNGSA,M,3,,,,,,,,,,,,,1.07,0.60,0.89,5*08
$GPGSV,3,1,09,05,45,046,39,11,18,115,22,13,61,077,45,15,76,188,31,1*6D
$GPGSV,3,2,09,18,36,315,35,23,24,270,27,29,57,227,32,44,33,233,31,1*69
$GPGSV,3,3,09,46,24,244,33,1*5B
$GPGSV,2,1,07,05,45,046,17,11,18,115,17,15,76,188,17,18,36,315,17,6*62
$GPGSV,2,2,07,21,19,062,13,23,24,270,24,29,57,227,22,6*53
$GPGSV,1,1,04,20,69,075,,24,09,165,,30,08,050,,48,27,241,,0*63
$GLGSV,2,1,07,66,03,035,08,67,57,022,22,68,64,236,34,69,16,220,26,1*72
$GLGSV,2,2,07,81,23,136,12,82,69,109,30,83,48,334,14,1*48
$GLGSV,2,1,05,67,57,022,17,68,64,236,17,69,16,220,30,82,69,109,32,3*73
$GLGSV,2,2,05,83,48,334,23,3*4D
$GAGSV,3,1,09,04,34,192,29,06,11,203,29,10,47,322,32,11,21,308,22,2*7B
$GAGSV,3,2,09,12,66,354,26,19,67,103,27,25,07,297,20,29,30,046,29,2*7A
$GAGSV,3,3,09,33,41,097,31,2*46
$GAGSV,3,1,10,04,34,192,27,06,11,203,27,10,47,322,33,11,21,308,24,7*71
$GAGSV,3,2,10,12,66,354,27,16,10,252,24,19,67,103,33,25,07,297,27,7*70
$GAGSV,3,3,10,29,30,046,23,33,41,097,36,7*77
$GAGSV,1,1,01,31,00,203,,0*46
$GBGSV,2,1,07,19,45,239,34,20,78,003,28,29,80,246,33,30,37,150,29,1*7B
$GBGSV,2,2,07,35,26,315,29,47,67,160,25,48,74,262,25,1*43
$GBGSV,1,1,01,19,45,239,08,B*3D
$GBGSV,1,1,01,32,23,045,,0*47
$GQGSV,1,1,00,0*64
$GNGLL,3509.37071,N,07925.36698,W,032102.00,A,A*61
$GNRMC,032103.00,A,3509.37070,N,07925.36696,W,0.035,,060226,,,A,V*0A
$GNVTG,,T,,M,0.035,N,0.066,K,A*3B
$GNGGA,032103.00,3509.37070,N,07925.36696,W,1,12,0.60,145.5,M,-33.6,M,,*71
$GNGSA,M,3,05,11,13,15,18,23,29,,,,,,1.07,0.60,0.89,1*0C
$GNGSA,M,3,82,69,83,81,67,68,,,,,,,1.07,0.60,0.89,2*07
$GNGSA,M,3,04,06,19,11,12,16,10,33,29,,,,1.07,0.60,0.89,3*0A
$GNGSA,M,3,19,20,29,30,35,,,,,,,,1.07,0.60,0.89,4*0D
$GNGSA,M,3,,,,,,,,,,,,,1.07,0.60,0.89,5*08
$GPGSV,3,1,09,05,45,046,39,11,18,115,21,13,61,077,45,15,76,188,31,1*6E
$GPGSV,3,2,09,18,36,315,34,23,24,270,27,29,57,227,32,44,33,233,31,1*68
$GPGSV,3,3,09,46,24,244,32,1*5A
$GPGSV,2,1,07,05,45,046,17,11,18,115,17,15,76,188,17,18,36,315,18,6*6D
$GPGSV,2,2,07,21,19,062,13,23,24,270,23,29,57,227,22,6*54
$GPGSV,1,1,04,20,69,075,,24,09,165,,30,08,050,,48,27,241,,0*63
$GLGSV,2,1,07,66,03,035,07,67,57,022,22,68,65,238,34,69,16,220,27,1*73
$GLGSV,2,2,07,81,23,136,13,82,69,109,30,83,48,334,18,1*45
$GLGSV,2,1,05,67,57,022,16,68,65,238,17,69,16,220,30,82,69,109,32,3*7D
$GLGSV,2,2,05,83,48,334,23,3*4D
$GAGSV,3,1,10,04,34,192,30,06,11,203,28,10,47,322,31,11,21,308,21,2*7A
$GAGSV,3,2,10,12,66,354,25,16,10,252,20,19,67,103,27,25,07,297,20,2*71
$GAGSV,3,3,10,29,30,046,29,33,41,097,31,2*7F
$GAGSV,3,1,10,04,34,192,27,06,11,203,27,10,47,322,33,11,21,308,24,7*71
$GAGSV,3,2,10,12,66,354,27,16,10,252,23,19,67,103,33,25,07,297,27,7*77
$GAGSV,3,3,10,29,30,046,23,33,41,097,36,7*77
$GAGSV,1,1,01,31,00,203,,0*46
$GBGSV,2,1,07,19,45,239,34,20,78,003,28,29,80,246,33,30,37,150,29,1*7B
$GBGSV,2,2,07,35,26,315,29,47,67,160,26,48,74,262,26,1*43
$GBGSV,1,1,01,32,23,045,,0*47
$GQGSV,1,1,00,0*64
$GNGLL,3509.37070,N,07925.36696,W,032103.00,A,A*6F
$GNRMC,032104.00,A,3509.37069,N,07925.36694,W,0.042,,060226,,,A,V*07
$GNVTG,,T,,M,0.042,N,0.078,K,A*34
$GNGGA,032104.00,3509.37069,N,07925.36694,W,1,12,0.60,145.4,M,-33.6,M,,*7D
$GNGSA,M,3,05,11,13,15,18,21,23,29,,,,,1.07,0.60,0.89,1*0F
$GNGSA,M,3,82,69,83,81,67,68,,,,,,,1.07,0.60,0.89,2*07
$GNGSA,M,3,04,06,19,11,12,16,10,33,29,,,,1.07,0.60,0.89,3*0A
$GNGSA,M,3,19,20,29,30,35,,,,,,,,1.07,0.60,0.89,4*0D
$GNGSA,M,3,,,,,,,,,,,,,1.07,0.60,0.89,5*08
$GPGSV,3,1,10,05,45,046,39,11,18,115,21,13,61,077,45,15,76,188,31,1*66
$GPGSV,3,2,10,18,36,315,34,21,19,062,26,23,24,270,27,29,57,227,32,1*6B
$GPGSV,3,3,10,44,33,233,32,46,24,244,32,1*61
$GPGSV,2,1,07,05,45,046,18,11,18,115,17,15,76,188,17,18,36,315,19,6*63
$GPGSV,2,2,07,21,19,062,13,23,24,270,23,29,57,227,22,6*54
$GPGSV,1,1,04,20,69,075,,24,09,165,,30,08,050,,48,27,241,,0*63
$GLGSV,2,1,07,66,03,035,07,67,57,022,22,68,65,238,34,69,16,221,27,1*72
$GLGSV,2,2,07,81,23,136,13,82,69,109,30,83,48,334,20,1*4E
$GLGSV,2,1,05,67,57,022,16,68,65,238,16,69,16,221,30,82,69,109,32,3*7D
$GLGSV,2,2,05,83,48,334,24,3*4A
$GAGSV,3,1,10,04,34,192,30,06,11,203,28,10,47,322,30,11,21,308,21,2*7B
$GAGSV,3,2,10,12,66,354,25,16,10,252,20,19,67,103,28,25,07,297,20,2*7E
$GAGSV,3,3,10,29,30,046,29,33,41,097,31,2*7F
$GAGSV,3,1,10,04,34,192,27,06,11,203,27,10,47,322,33,11,21,308,25,7*70
$GAGSV,3,2,10,12,66,354,27,16,10,252,23,19,67,103,33,25,07,297,27,7*77
$GAGSV,3,3,10,29,30,046,23,33,41,097,36,7*77
$GAGSV,1,1,01,31,00,203,,0*46
$GBGSV,2,1,07,19,45,239,34,20,78,003,28,29,80,246,32,30,37,150,29,1*7A
$GBGSV,2,2,07,35,26,315,28,47,67,160,26,48,74,262,26,1*42
$GBGSV,1,1,01,32,23,045,,0*47
$GQGSV,1,1,00,0*64
$GNGLL,3509.37069,N,07925.36694,W,032104.00,A,A*62
$GNRMC,032105.00,A,3509.37069,N,07925.36693,W,0.050,,060226,,,A,V*02
$GNVTG,,T,,M,0.050,N,0.093,K,A*32
$GNGGA,032105.00,3509.37069,N,07925.36693,W,1,12,0.53,145.4,M,-33.6,M,,*7B
$GNGSA,M,3,05,11,13,15,18,21,23,29,,,,,0.93,0.53,0.76,1*03
$GNGSA,M,3,82,69,83,81,67,68,,,,,,,0.93,0.53,0.76,2*0B
$GNGSA,M,3,04,06,19,11,12,16,10,33,29,,,,0.93,0.53,0.76,3*06
$GNGSA,M,3,19,20,29,30,35,,,,,,,,0.93,0.53,0.76,4*01
$GNGSA,M,3,,,,,,,,,,,,,0.93,0.53,0.76,5*04
$GPGSV,3,1,10,05,45,046,39,11,18,115,20,13,61,077,45,15,76,188,32,1*64
$GPGSV,3,2,10,18,36,315,34,21,19,062,25,23,24,270,27,29,57,227,33,1*69
$GPGSV,3,3,10,44,33,233,32,46,24,244,32,1*61
$GPGSV,2,1,07,05,45,046,18,11,18,115,16,15,76,188,16,18,36,315,20,6*69
$GPGSV,2,2,07,21,19,062,14,23,24,270,24,29,57,227,22,6*54
$GPGSV,1,1,04,20,69,075,,24,09,165,,30,08,050,,48,27,241,,0*63
$GLGSV,2,1,07,66,03,035,08,67,57,022,22,68,65,238,34,69,16,221,27,1*7D
